final_price,title,type,location,sale_date,agent_name,agent_link,price_per_square_meter,starting_price,price_development,type_2,release_form,number_of_rooms,living_area,balcony,floor,year_of_construction,fee,url,operational_cost,outdoor_space,sale_year,sale_month,sale_day,floor_number,elevator_presence,lat,long
2750000,Köpenhamnsvägen 13A,Lägenhet,"Slottsstaden, Malmö kommun",2017-01-26,,,32934.0,2350000.0,+400 000 kr (+17 %),Lägenhet,Bostadsrätt,4 rum,"83,5 m²",,,1953,3833.0,https://www.hemnet.se/salda/lagenhet-4rum-slottsstaden-malmo-kommun-kopenhamnsvagen-13a-625761,,,2017.0,1.0,26.0,,0,55.5937148,12.9804835
3200000,Baltzarsgatan 41 B,Lägenhet,"City, Malmö kommun",2018-03-01,,,36782.0,3295000.0,-95 000 kr (-3 %),Lägenhet,Bostadsrätt,"2,5 rum",87 m²,,,1897,4763.0,"https://www.hemnet.se/salda/lagenhet-2,5rum-city-malmo-kommun-baltzarsgatan-41-b-799678",,,2018.0,3.0,1.0,,0,55.6046307,13.0020676
1975000,Skvadronsgatan 18,Lägenhet,"Slottstaden, Malmö kommun",2018-06-21,[email protected],"https://www.hemnet.se/maklare/hemverket-ab-36511/info-hemverket,se-144",32917.0,2195000.0,-220 000 kr (-10 %),Lägenhet,Bostadsrätt,2 rum,60 m²,,,,1627.0,https://www.hemnet.se/salda/lagenhet-2rum-slottstaden-malmo-kommun-skvadronsgatan-18-849529,,,2018.0,6.0,21.0,,0,55.5972751,12.9793014
725000,Thomsons Väg 6,Lägenhet,"Rosengård, Malmö kommun",2022-01-19,Jacob Friberg,https://www.hemnet.se/maklare/bjurfors-malmo-oster-2048/jacob-friberg-14876,11885.0,650000.0,+75 000 kr (+12 %),Lägenhet,Bostadsrätt,2 rum,61 m²,1.0,"1 av 8, hiss finns",1970,4123.0,https://www.hemnet.se/salda/lagenhet-2rum-rosengard-malmo-kommun-thomsons-vag-6-1114063577803623874,,,2022.0,1.0,19.0,1.0,1,55.5852438,13.0550823
1945000,Bertrandsgatan 3A,Lägenhet,"Rörsjöstaden, Malmö kommun",2020-01-25,Philip Ekdahl,https://www.hemnet.se/maklare/croisette-malmo-slottsstaden-1091/philip-ekdahl-11614,37404.0,1995000.0,-50 000 kr (-3 %),Lägenhet,Bostadsrätt,2 rum,52 m²,1.0,,2017,3081.0,https://www.hemnet.se/salda/lagenhet-2rum-rorsjostaden-malmo-kommun-bertrandsgatan-3a-1132788,,,2020.0,1.0,25.0,,0,55.6028599,13.0197154
3350000,Hjulhamnsgatan 8,Lägenhet,"Gamla Väster, Malmö kommun",2020-06-04,Johan Dahlgren,https://www.hemnet.se/maklare/croisette-malmo-vastra-hamnen-12766/johan-dahlgren-465,50758.0,3395000.0,-45 000 kr (-1 %),Lägenhet,Bostadsrätt,2 rum,66 m²,1.0,,2008,4114.0,https://www.hemnet.se/salda/lagenhet-2rum-gamla-vaster-malmo-kommun-hjulhamnsgatan-8-1197799,,,2020.0,6.0,4.0,,0,55.604532,12.9987561
2260000,Skvadronsgatan 9B,Lägenhet,"Ribersborg, Malmö kommun",2018-01-16,,,35313.0,2195000.0,+65 000 kr (+3 %),Lägenhet,Bostadsrätt,2 rum,64 m²,,,1945,3557.0,https://www.hemnet.se/salda/lagenhet-2rum-ribersborg-malmo-kommun-skvadronsgatan-9b-779161,3300.0,,2018.0,1.0,16.0,,0,55.5984812,12.9784999
2000000,Ostindiefararegatan 5,Lägenhet,"Gamla Väster, Malmö kommun",2017-08-10,,,50000.0,1750000.0,+250 000 kr (+14 %),Lägenhet,Bostadsrätt,2 rum,40 m²,,,1931,2590.0,https://www.hemnet.se/salda/lagenhet-2rum-gamla-vaster-malmo-kommun-ostindiefararegatan-5-717769,2496.0,,2017.0,8.0,10.0,,0,55.6043997,12.9956362
1280000,Berguvsgatan 4A,Lägenhet,"Söderkulla, Malmö kommun",2020-07-15,Labinot Krasniqi,https://www.hemnet.se/maklare/erik-olsson-fastighetsformedling-435894/labinot-krasniqi-8114,21333.0,1195000.0,+85 000 kr (+7 %),Lägenhet,Bostadsrätt,2 rum,60 m²,1.0,,1962,3265.0,https://www.hemnet.se/salda/lagenhet-2rum-soderkulla-malmo-kommun-berguvsgatan-4a-1219918,7460.0,,2020.0,7.0,15.0,,0,55.5700859,13.0078026
680000,Kronetorpsgatan 52 B,Lägenhet,"Segevång, Malmö kommun",2019-04-14,Silva Curraj,https://www.hemnet.se/maklare/erik-olsson-fastighetsformedling-435894/silva-curraj-325,17895.0,650000.0,+30 000 kr (+5 %),Lägenhet,Bostadsrätt,2 rum,38 m²,,,1964,2684.0,https://www.hemnet.se/salda/lagenhet-2rum-segevang-malmo-kommun-kronetorpsgatan-52-b-980502,3480.0,,2019.0,4.0,14.0,,0,55.6158376,13.0513723
2700000,Kilian Zollsgatan 5C,Lägenhet,"Ribersborg, Malmö kommun",2020-10-21,Tobias Broqvist,https://www.hemnet.se/maklare/lansforsakringar-fastighetsformedling-malmo-39311/tobias-broqvist-15356,49091.0,2495000.0,+205 000 kr (+8 %),Lägenhet,Bostadsrätt,2 rum,55 m²,1.0,"4, hiss finns ej",1939,4027.0,https://www.hemnet.se/salda/lagenhet-2rum-ribersborg-malmo-kommun-kilian-zollsgatan-5c-1274555,,,2020.0,10.0,21.0,4.0,1,55.6016543,12.980564
2550000,Storgatan 26,Lägenhet,"Davidshall, Malmö kommun",2018-03-22,Marielle Jungerup,https://www.hemnet.se/maklare/bjurfors-malmo-city-1806/marielle-jungerup-4076,40476.0,2295000.0,+255 000 kr (+11 %),Lägenhet,Bostadsrätt,2 rum,63 m²,,,1930,3523.0,https://www.hemnet.se/salda/lagenhet-2rum-davidshall-malmo-kommun-storgatan-26-807199,,,2018.0,3.0,22.0,,0,55.599643900000004,12.998999237958348
1770000,Sveagatan 98C,Lägenhet,"Limhamn, Malmö kommun",2018-08-19,,,30000.0,1695000.0,+75 000 kr (+4 %),Lägenhet,Bostadsrätt,2 rum,59 m²,,,1949,3284.0,https://www.hemnet.se/salda/lagenhet-2rum-limhamn-malmo-kommun-sveagatan-98c-867153,,,2018.0,8.0,19.0,,0,55.5836098,12.9422699
5000000,Norra Skolgatan 3,Lägenhet,"Triangeln, Malmö kommun",2020-02-16,Rickard Bremer,https://www.hemnet.se/maklare/fastighetsbyran-malmo-169/rickard-bremer-11315,40000.0,4295000.0,+705 000 kr (+16 %),Lägenhet,Bostadsrätt,5 rum,125 m²,0.0,,,7096.0,https://www.hemnet.se/salda/lagenhet-5rum-triangeln-malmo-kommun-norra-skolgatan-3-1144841,,,2020.0,2.0,16.0,,0,55.5971748,13.0058946
1410000,Vendelsfridsgatan 6A,Lägenhet,"Lorensborg, Malmö kommun",2021-02-09,Dennis Berg,https://www.hemnet.se/maklare/bjurfors-jonkoping-711611/dennis-berg-10675,24956.0,1395000.0,+15 000 kr (+1 %),Lägenhet,Bostadsrätt,2 rum,"56,5 m²",1.0,"4 av 16, hiss finns",1959,3170.0,https://www.hemnet.se/salda/lagenhet-2rum-lorensborg-malmo-kommun-vendelsfridsgatan-6a-1327732,,,2021.0,2.0,9.0,4.0,1,55.5845886,12.9817453
1395000,Kronetorpsgatan 74A,Lägenhet,"Segevång, Malmö kommun",2023-07-18,Rasmus Eriksson,https://www.hemnet.se/maklare/croisette-malmo-slottsstaden-1091/rasmus-eriksson-19260,20217.0,1395000.0,0 kr (±0 %),Lägenhet,Bostadsrätt,3 rum,69 m²,0.0,"8 av 9, hiss finns",1962,4956.0,https://www.hemnet.se/salda/lagenhet-3rum-segevang-malmo-kommun-kronetorpsgatan-74a-6312723883430869738,,,2023.0,7.0,18.0,8.0,1,55.6163719,13.0545888
1900000,Örsholmsgången 8A,Lägenhet,"Fågelbacken, Malmö kommun",2023-07-20,Kevin Livingstone,https://www.hemnet.se/maklare/erik-olsson-fastighetsformedling-720071/kevin-livingstone-19223,29688.0,1950000.0,-50 000 kr (-3 %),Lägenhet,Bostadsrätt,2 rum,64 m²,1.0,"2 av 4, hiss finns ej",1946,4362.0,https://www.hemnet.se/salda/lagenhet-2rum-fagelbacken-malmo-kommun-orsholmsgangen-8a-970297067727468693,1920.0,,2023.0,7.0,20.0,2.0,1,55.5943095,12.9838488
1770000,Mastgränd 28,Lägenhet,"Västra Hamnen, Malmö kommun",2017-08-29,,,47838.0,1695000.0,+75 000 kr (+4 %),Lägenhet,Bostadsrätt,1 rum,37 m²,,,2016,2303.0,https://www.hemnet.se/salda/lagenhet-1rum-vastra-hamnen-malmo-kommun-mastgrand-28-720684,,,2017.0,8.0,29.0,,0,55.612916,12.978422861074568
750000,Lundavägen 69A,Lägenhet,"Rostorp, Malmö kommun",2022-02-11,Ajdin Fatic,https://www.hemnet.se/maklare/fastighetsbyran-malmo-169/ajdin-fatic-16369,19737.0,735000.0,+15 000 kr (+2 %),Lägenhet,Bostadsrätt,1 rum,38 m²,1.0,"2 av 3, hiss finns ej",1944,2252.0,https://www.hemnet.se/salda/lagenhet-1rum-rostorp-malmo-kommun-lundavagen-69a-4409055316089882552,,,2022.0,2.0,11.0,2.0,1,55.6149819,13.0440278
2000000,Stora Trädgårdsgatan 3E,Lägenhet,"Drottningtorget, Malmö kommun",2022-05-04,,,31746.0,1995000.0,+5 000 kr (±0 %),Lägenhet,Bostadsrätt,2 rum,63 m²,0.0,"1 av 5, hiss finns",1970,3042.0,https://www.hemnet.se/salda/lagenhet-2rum-drottningtorget-malmo-kommun-stora-tradgardsgatan-3e-6067723423514208676,,,2022.0,5.0,4.0,1.0,1,55.6078233,13.0107149
1615000,Bellmansgatan 1,Lägenhet,"Rörsjöstaden, Malmö kommun",2023-07-21,Fredrik Leche,https://www.hemnet.se/maklare/bjurfors-malmo-city-1806/fredrik-leche-18338,44861.0,1595000.0,+20 000 kr (+1 %),Lägenhet,Bostadsrätt,1 rum,36 m²,0.0,"3 av 4, hiss finns ej",1929,2355.0,https://www.hemnet.se/salda/lagenhet-1rum-rorsjostaden-malmo-kommun-bellmansgatan-1-8683006575285489141,,,2023.0,7.0,21.0,3.0,1,55.6034387,13.0187216
1900000,Statistgatan 12,Lägenhet,"Lindeborg, Malmö kommun",2022-06-16,Emma Zacharian,https://www.hemnet.se/maklare/fastighetsbyran-malmo-169/emma-zacharian-1399,24204.0,1695000.0,+205 000 kr (+12 %),Lägenhet,Bostadsrätt,3 rum,"78,5 m²",,"5 av 8, hiss finns",1973,4330.0,https://www.hemnet.se/salda/lagenhet-3rum-lindeborg-malmo-kommun-statistgatan-12-4287197755702370002,5603.0,,2022.0,6.0,16.0,5.0,1,55.5579335,12.9905406
695000,Norra Bulltoftavägen 69B,Lägenhet,"Kirseberg, Malmö kommun",2015-09-03,,,11983.0,695000.0,0 kr (±0 %),Lägenhet,Bostadsrätt,2 rum,58 m²,,,1952,4155.0,https://www.hemnet.se/salda/lagenhet-2rum-kirseberg-malmo-kommun-norra-bulltoftavagen-69b-408224,5849.0,,2015.0,9.0,3.0,,0,55.6108168,13.0356724
875000,Ingelstadsgatan 4,Lägenhet,"Slottsstaden, Malmö kommun",2016-07-21,,,32772.0,875000.0,0 kr (±0 %),Lägenhet,Bostadsrätt,1 rum,"26,7 m²",,,1945,2048.0,https://www.hemnet.se/salda/lagenhet-1rum-slottsstaden-malmo-kommun-ingelstadsgatan-4-547512,3192.0,,2016.0,7.0,21.0,,0,55.5960541,12.9706577
1120000,Norrbäcksgatan 39,Lägenhet,"Kroksbäck, Malmö kommun",2019-07-18,Therese Lagerfelt,https://www.hemnet.se/maklare/fastighetsbyran-malmo-169/therese-lagerfelt-15913,17500.0,950000.0,+170 000 kr (+18 %),Lägenhet,Bostadsrätt,2 rum,64 m²,,,1967,3507.0,https://www.hemnet.se/salda/lagenhet-2rum-kroksback-malmo-kommun-norrbacksgatan-39-1046301,3650.0,,2019.0,7.0,18.0,,0,55.577232,12.9749111
1995000,Köpenhamnsvägen 49 B,Lägenhet,"Slottsstaden, Malmö kommun",2019-12-20,,,33250.0,1995000.0,0 kr (±0 %),Lägenhet,Bostadsrätt,3 rum,60 m²,,,1952,4214.0,https://www.hemnet.se/salda/lagenhet-3rum-slottsstaden-malmo-kommun-kopenhamnsvagen-49-b-1117194,4860.0,,2019.0,12.0,20.0,,0,55.5944122,12.9683079
1300000,Widells Väg 1,Lägenhet,"Rosengård, Malmö kommun",2021-12-16,Safeer Samawi,https://www.hemnet.se/maklare/croisette-malmo-slottsstaden-1091/safeer-samawi-19857,15476.0,1195000.0,+105 000 kr (+9 %),Lägenhet,Bostadsrätt,3 rum,84 m²,1.0,"15 av 16, hiss finns",1970,5863.0,https://www.hemnet.se/salda/lagenhet-3rum-rosengard-malmo-kommun-widells-vag-1-7998707373088423980,,,2021.0,12.0,16.0,15.0,1,55.5840722,13.0543883
1650000,Kungsgatan 34A,Lägenhet,"Rörsjöstaden, Malmö kommun",2022-09-12,Lisa Ivarsson,https://www.hemnet.se/maklare/croisette-malmo-slottsstaden-1091/lisa-ivarsson-14256,47143.0,1695000.0,-45 000 kr (-3 %),Lägenhet,Bostadsrätt,2 rum,35 m²,0.0,"3 av 5, hiss finns ej",1924,2251.0,https://www.hemnet.se/salda/lagenhet-2rum-rorsjostaden-malmo-kommun-kungsgatan-34a-3861260774143799669,,,2022.0,9.0,12.0,3.0,1,55.6028267,13.015397
970000,Värnhemsgatan 6,Lägenhet,"Östervärn, Malmö kommun",2017-10-30,,,24250.0,995000.0,-25 000 kr (-3 %),Lägenhet,Bostadsrätt,"1,5 rum",40 m²,,,1931,2239.0,"https://www.hemnet.se/salda/lagenhet-1,5rum-ostervarn-malmo-kommun-varnhemsgatan-6-753740",,,2017.0,10.0,30.0,,0,55.6051348,13.026984623296915
970000,Nils Forsbergsgatan 12,Lägenhet,"Ribersborg, Malmö kommun",2014-12-06,,,23659.0,995000.0,-25 000 kr (-3 %),Lägenhet,Bostadsrätt,1 rum,41 m²,,,1944,2850.0,https://www.hemnet.se/salda/lagenhet-1rum-ribersborg-malmo-kommun-nils-forsbergsgatan-12-282404,5220.0,,2014.0,12.0,6.0,,0,55.6002731,12.9804084
910000,Sadelmakarebyn 2C,Lägenhet,"Bunkeflostrand, Malmö kommun",2016-06-20,Anders Nilsson,https://www.hemnet.se/maklare/bjurfors-malmo-city-1806/anders-nilsson-9587,13000.0,945000.0,-35 000 kr (-4 %),Lägenhet,Bostadsrätt,3 rum,70 m²,,,2004,6290.0,https://www.hemnet.se/salda/lagenhet-3rum-bunkeflostrand-malmo-kommun-sadelmakarebyn-2c-534951,,,2016.0,6.0,20.0,,0,55.55700525,12.935840032163696
1095000,Ellstorpsgatan 1C,Lägenhet,"Ellstorp, Malmö kommun",2018-07-27,,,26642.0,1095000.0,0 kr (±0 %),Lägenhet,Bostadsrätt,"1,5 rum","41,1 m²",,,1939,2533.0,"https://www.hemnet.se/salda/lagenhet-1,5rum-ellstorp-malmo-kommun-ellstorpsgatan-1c-859368",,,2018.0,7.0,27.0,,0,55.6036427,13.0301157
1650000,Kulladalsgatan 12A,Lägenhet,"Kulladal, Malmö kommun",2017-04-11,Elin Bengtsson,https://www.hemnet.se/maklare/erik-olsson-fastighetsformedling-435894/elin-bengtsson-12284,18966.0,1595000.0,+55 000 kr (+3 %),Lägenhet,Bostadsrätt,3 rum,87 m²,,,1965,4628.0,https://www.hemnet.se/salda/lagenhet-3rum-kulladal-malmo-kommun-kulladalsgatan-12a-657636,6419.0,,2017.0,4.0,11.0,,0,55.5734227,13.0035615
2295000,Köpenhamnsvägen 44C,Lägenhet,"Erikslust/ Slottsstaden, Malmö kommun",2015-08-14,,,27321.0,2295000.0,0 kr (±0 %),Lägenhet,Bostadsrätt,4 rum,84 m²,,,1952,4178.0,https://www.hemnet.se/salda/lagenhet-4rum-erikslust-slottsstaden-malmo-kommun-kopenhamnsvagen-44c-397449,5600.0,,2015.0,8.0,14.0,,0,55.5942129,12.9656625
3150000,Östra Rönneholmsvägen 3B,Lägenhet,"Davidshall, Malmö kommun",2022-11-04,Andreas Holmberg,https://www.hemnet.se/maklare/bo-laget-fastighetsformedling-716831/andreas-holmberg-18485,50806.0,3495000.0,-345 000 kr (-10 %),Lägenhet,Bostadsrätt,2 rum,62 m²,1.0,"2 av 4, hiss finns",1934,2389.0,https://www.hemnet.se/salda/lagenhet-2rum-davidshall-malmo-kommun-ostra-ronneholmsvagen-3b-8188354488030693589,6000.0,,2022.0,11.0,4.0,2.0,1,55.596984,12.9981125
2250000,Uppsalagatan 4A,Lägenhet,"Södervärn, Malmö kommun",2020-12-02,Philip Ekdahl,https://www.hemnet.se/maklare/croisette-malmo-slottsstaden-1091/philip-ekdahl-11614,28125.0,1895000.0,+355 000 kr (+19 %),Lägenhet,Bostadsrätt,4 rum,80 m²,0.0,"1 av 4, hiss finns ej",1939,4712.0,https://www.hemnet.se/salda/lagenhet-4rum-sodervarn-malmo-kommun-uppsalagatan-4a-1298656,,,2020.0,12.0,2.0,1.0,1,55.5867792,13.007529
1260000,Falsterbogatan 12 A,Lägenhet,"Folkets Park, Malmö kommun",2017-09-07,,,34054.0,1195000.0,+65 000 kr (+5 %),Lägenhet,Bostadsrätt,2 rum,37 m²,,,1936,2949.0,https://www.hemnet.se/salda/lagenhet-2rum-folkets-park-malmo-kommun-falsterbogatan-12-a-726862,3800.0,,2017.0,9.0,7.0,,0,55.5934532,13.0155112
3195000,Nicoloviusgatan 5 A,Lägenhet,"Ribersborg, Malmö kommun",2014-04-02,,,28527.0,3195000.0,0 kr (±0 %),Lägenhet,Bostadsrätt,4 rum,112 m²,,,1959,5447.0,https://www.hemnet.se/salda/lagenhet-4rum-ribersborg-malmo-kommun-nicoloviusgatan-5-a-170253,4800.0,,2014.0,4.0,2.0,,0,55.6018657,12.9741952
1500000,Nobelvägen 145A,Lägenhet,"Ellstorp, Malmö kommun",2020-03-12,Daniel Bokhari Friberg,https://www.hemnet.se/maklare/erik-olsson-fastighetsformedling-435894/daniel-bokhari-friberg-16292,20270.0,1495000.0,+5 000 kr (±0 %),Lägenhet,Bostadsrätt,3 rum,74 m²,1.0,,1938,5029.0,https://www.hemnet.se/salda/lagenhet-3rum-ellstorp-malmo-kommun-nobelvagen-145a-1155717,4860.0,,2020.0,3.0,12.0,,0,55.6037834,13.0286869
1325000,Vitemöllegatan 16A,Lägenhet,"Nobeltorget, Malmö kommun",2022-05-23,Oscar Guedra,https://www.hemnet.se/maklare/erik-olsson-fastighetsformedling-720071/oscar-guedra-8228,22083.0,1295000.0,+30 000 kr (+2 %),Lägenhet,Bostadsrätt,2 rum,60 m²,1.0,"1 av 4, hiss finns ej",1955,4120.0,https://www.hemnet.se/salda/lagenhet-2rum-nobeltorget-malmo-kommun-vitemollegatan-16a-6320453956374720920,5428.0,,2022.0,5.0,23.0,1.0,1,55.5894781,13.0257103
1870000,Aktrisgatan 8,Lägenhet,"Lindeborg, Malmö kommun",2021-06-22,Labinot Krasniqi,https://www.hemnet.se/maklare/erik-olsson-fastighetsformedling-435894/labinot-krasniqi-8114,23671.0,1895000.0,-25 000 kr (-1 %),Lägenhet,Bostadsrätt,3 rum,79 m²,1.0,"2 av 3, hiss finns ej",1972,4321.0,https://www.hemnet.se/salda/lagenhet-3rum-lindeborg-malmo-kommun-aktrisgatan-8-1412441,5880.0,,2021.0,6.0,22.0,2.0,1,55.5596749,12.9869175
2300000,Rådmansgatan 15 F,Lägenhet,"Triangeln, Malmö kommun",2021-04-06,Therese Franzén,https://www.hemnet.se/maklare/erik-olsson-fastighetsformedling-732631/therese-franzen-10143,40351.0,2195000.0,+105 000 kr (+5 %),Lägenhet,Bostadsrätt,2 rum,57 m²,1.0,"4 av 5, hiss finns",1945,3921.0,https://www.hemnet.se/salda/lagenhet-2rum-triangeln-malmo-kommun-radmansgatan-15-f-1359294,3800.0,,2021.0,4.0,6.0,4.0,1,55.594693,13.0003044
1550000,Branteviksgatan 8C,Lägenhet,"Östra Sorgenfri, Malmö kommun",2021-05-02,Sara Persson,https://www.hemnet.se/maklare/bjurfors-malmo-city-1806/sara-persson-8993,25833.0,1395000.0,+155 000 kr (+11 %),Lägenhet,Bostadsrätt,2 rum,60 m²,1.0,"2 av 4, hiss finns ej",1956,3831.0,https://www.hemnet.se/salda/lagenhet-2rum-ostra-sorgenfri-malmo-kommun-branteviksgatan-8c-1376652,,,2021.0,5.0,2.0,2.0,1,55.59172,13.0304258
2005000,Producentgatan 9,Lägenhet,"Lindeborg, Malmö kommun",2020-05-19,Vincent Haghighi,https://www.hemnet.se/maklare/erik-olsson-fastighetsformedling-435894/vincent-haghighi-7378,25541.0,1995000.0,+10 000 kr (+1 %),Lägenhet,Bostadsrätt,3 rum,"78,5 m²",1.0,,1972,4126.0,https://www.hemnet.se/salda/lagenhet-3rum-lindeborg-malmo-kommun-producentgatan-9-1188062,4860.0,,2020.0,5.0,19.0,,0,55.5635348,12.9885004
2275000,Skvadronsgatan 18,Lägenhet,"Slottsstaden, Malmö kommun",2020-08-15,Alexander Jellhede,https://www.hemnet.se/maklare/croisette-malmo-slottsstaden-1091/alexander-jellhede-17295,37917.0,2195000.0,+80 000 kr (+4 %),Lägenhet,Andel i bostadsförening,3 rum,60 m²,0.0,,1927,2798.0,https://www.hemnet.se/salda/lagenhet-3rum-slottsstaden-malmo-kommun-skvadronsgatan-18-1232299,,,2020.0,8.0,15.0,,0,55.5972751,12.9793014
1250000,Nobelvägen 68B,Lägenhet,"Norra Sorgenfri, Malmö kommun",2021-01-10,,,39063.0,1250000.0,0 kr (±0 %),Lägenhet,Bostadsrätt,1 rum,32 m²,0.0,"1 av 5, hiss finns",2018,1960.0,https://www.hemnet.se/salda/lagenhet-1rum-norra-sorgenfri-malmo-kommun-nobelvagen-68b-1312340,,1.0,2021.0,1.0,10.0,1.0,1,55.5854076,13.0090857
725000,Värnhemsgatan 15,Lägenhet,"Värnhem / Östervärn, Malmö kommun",2015-08-19,Lennart Andén,https://www.hemnet.se/maklare/bocenter-fastighetsformedling-717791/lennart-anden-2543,14216.0,750000.0,-25 000 kr (-3 %),Lägenhet,Bostadsrätt,1 rum,51 m²,,,1930-tal,3233.0,https://www.hemnet.se/salda/lagenhet-1rum-varnhem-ostervarn-malmo-kommun-varnhemsgatan-15-476862,2400.0,,2015.0,8.0,19.0,,0,55.6043653,13.0278901
1150000,Lönngatan 54E,Lägenhet,"Lönngården, Malmö kommun",2023-08-15,Konrad Hättmark,https://www.hemnet.se/maklare/erik-olsson-fastighetsformedling-720071/konrad-hattmark-18279,21698.0,995000.0,+155 000 kr (+16 %),Lägenhet,Bostadsrätt,2 rum,53 m²,0.0,"1 av 3, hiss finns ej",1936,3245.0,https://www.hemnet.se/salda/lagenhet-2rum-lonngarden-malmo-kommun-lonngatan-54e-1992713419015435673,7320.0,,2023.0,8.0,15.0,1.0,1,55.5822381,13.0242811
1650000,Erik Dahlbergsgatan 12,Lägenhet,"Davidshall, Malmö kommun",2022-02-20,Filip Svensson,https://www.hemnet.se/maklare/croisette-malmo-vastra-hamnen-12766/filip-svensson-19901,71739.0,1395000.0,+255 000 kr (+18 %),Lägenhet,Bostadsrätt,1 rum,23 m²,0.0,"2 av 5, hiss finns ej",1929,1712.0,https://www.hemnet.se/salda/lagenhet-1rum-davidshall-malmo-kommun-erik-dahlbergsgatan-12-5570102050329408765,,,2022.0,2.0,20.0,2.0,1,55.5985195,12.9967941
1295000,Vitemöllegatan 14B,Lägenhet,"Nobeltorget, Malmö kommun",2020-08-21,Jessica Johansson,https://www.hemnet.se/maklare/fastighetsbyran-malmo-169/jessica-johansson-9359,24904.0,1195000.0,+100 000 kr (+8 %),Lägenhet,Bostadsrätt,2 rum,52 m²,,"4 av 4, hiss finns ej",1958,3553.0,https://www.hemnet.se/salda/lagenhet-2rum-nobeltorget-malmo-kommun-vitemollegatan-14b-1236123,,,2020.0,8.0,21.0,4.0,1,55.5894781,13.0257103
920000,Von Lingens väg 31,Lägenhet,"Norra Rosengård, Malmö kommun",2017-03-06,[email protected],"https://www.hemnet.se/maklare/hemverket-ab-36511/info-hemverket,se-144",11288.0,825000.0,+95 000 kr (+12 %),Lägenhet,Bostadsrätt,3 rum,"81,5 m²",,,,4529.0,https://www.hemnet.se/salda/lagenhet-3rum-ostra-malmo-malmo-kommun-von-lingens-vag-31-657244,,,2017.0,3.0,6.0,,0,55.5880053,13.0433163
2600000,Ängdalavägen 28,Lägenhet,"Dammfri, Malmö kommun",2021-03-17,Agneta Chong,https://www.hemnet.se/maklare/erik-olsson-fastighetsformedling-435894/agneta-chong-9177,39695.0,2495000.0,+105 000 kr (+4 %),Lägenhet,Bostadsrätt,3 rum,"65,5 m²",1.0,"2 av 4, hiss finns ej",1951,4430.0,https://www.hemnet.se/salda/lagenhet-3rum-dammfri-malmo-kommun-angdalavagen-28-1347772,4860.0,,2021.0,3.0,17.0,2.0,1,55.591784149999995,12.976922900581645
900000,Jägersrovägen 19B,Lägenhet,"Västra Kattarp, Malmö kommun",2024-03-07,Artemiz Eskafi,https://www.hemnet.se/maklare/fastighetsbyran-malmo-169/artemiz-eskafi-17058,14876.0,945000.0,-45 000 kr (-5 %),Lägenhet,Bostadsrätt,2 rum,"60,5 m²",1.0,"4 av 4, hiss finns ej",1960,4188.0,https://www.hemnet.se/salda/lagenhet-2rum-vastra-kattarp-malmo-kommun-jagersrovagen-19b-4892796686275000152,,,2024.0,3.0,7.0,4.0,1,55.5780304,13.0355274
1095000,Vitemöllegatan 3F,Lägenhet,"Nobeltorget, Malmö kommun",2023-09-21,Sara Persson,https://www.hemnet.se/maklare/bjurfors-malmo-city-1806/sara-persson-8993,26010.0,1095000.0,0 kr (±0 %),Lägenhet,Bostadsrätt,1 rum,"42,1 m²",0.0,"1 av 4, hiss finns ej",1944,2690.0,https://www.hemnet.se/salda/lagenhet-1rum-nobeltorget-malmo-kommun-vitemollegatan-3f-2497930499359277381,,,2023.0,9.0,21.0,1.0,1,55.5896045,13.0224575
1070000,Kronetorpsgatan 54 B,Lägenhet,"Segevång, Malmö kommun",2017-08-23,,,14861.0,975000.0,+95 000 kr (+10 %),Lägenhet,Bostadsrätt,3 rum,72 m²,,,1960,3790.0,https://www.hemnet.se/salda/lagenhet-3rum-segevang-malmo-kommun-kronetorpsgatan-54-b-718433,,,2017.0,8.0,23.0,,0,55.6143259,13.0486591
2450000,Helsingborgsgatan 16,Lägenhet,"S:t Knut, Malmö kommun",2018-11-12,,,31013.0,2495000.0,-45 000 kr (-2 %),Lägenhet,Bostadsrätt,3 rum,79 m²,,,2012,4024.0,https://www.hemnet.se/salda/lagenhet-3rum-s-t-knut-malmo-kommun-helsingborgsgatan-16-910366,,,2018.0,11.0,12.0,,0,55.5958634,13.0110356
1360000,Fredmansgatan 5B,Lägenhet,"Rörsjöstaden, Malmö kommun",2017-03-08,,,39080.0,1295000.0,+65 000 kr (+5 %),Lägenhet,Bostadsrätt,1 rum,"34,8 m²",,,1927,2341.0,https://www.hemnet.se/salda/lagenhet-1rum-rorsjostaden-malmo-kommun-fredmansgatan-5b-641797,7000.0,,2017.0,3.0,8.0,,0,55.6034387,13.0187216
2650000,Skvadronsgatan 9C,Lägenhet,"Ribersborg, Malmö kommun",2020-10-20,Martin Arup,https://www.hemnet.se/maklare/erik-olsson-fastighetsformedling-720071/martin-arup-6181,41406.0,2495000.0,+155 000 kr (+6 %),Lägenhet,Bostadsrätt,2 rum,64 m²,1.0,"3 av 5, hiss finns",1945,3557.0,https://www.hemnet.se/salda/lagenhet-2rum-ribersborg-malmo-kommun-skvadronsgatan-9c-1273448,3620.0,,2020.0,10.0,20.0,3.0,1,55.5984812,12.9784999
1600000,Birger Jarlsgatan 41A,Lägenhet,"Limhamn, Malmö kommun",2021-09-12,Konrad Hättmark,https://www.hemnet.se/maklare/erik-olsson-fastighetsformedling-720071/konrad-hattmark-18279,39506.0,1450000.0,+150 000 kr (+10 %),Lägenhet,Bostadsrätt,1 rum,"40,5 m²",1.0,"4 av 4, hiss finns ej",1961,1982.0,https://www.hemnet.se/salda/lagenhet-1rum-limhamn-malmo-kommun-birger-jarlsgatan-41a-1455257,3620.0,,2021.0,9.0,12.0,4.0,1,55.5809729,12.9254579
1775000,Ribevägen 8A,Lägenhet,"Dammfri, Malmö kommun",2024-02-27,Linnéa Lindberg,https://www.hemnet.se/maklare/fastighetsbyran-malmo-169/linnea-lindberg-17954,31696.0,1795000.0,-20 000 kr (-1 %),Lägenhet,Bostadsrätt,2 rum,56 m²,1.0,"2 av 3, hiss finns ej",1948,4496.0,https://www.hemnet.se/salda/lagenhet-2rum-dammfri-malmo-kommun-ribevagen-8a-261152250780709983,10276.0,,2024.0,2.0,27.0,2.0,1,55.590918,12.9826827
2650000,Mariedalsvägen 21,Lägenhet,"Ribersborg, Malmö kommun",2016-08-13,Martin Arup,https://www.hemnet.se/maklare/erik-olsson-fastighetsformedling-720071/martin-arup-6181,27320.0,2495000.0,+155 000 kr (+6 %),Lägenhet,Bostadsrätt,3 rum,97 m²,,,1927,4825.0,https://www.hemnet.se/salda/lagenhet-3rum-ribersborg-malmo-kommun-mariedalsvagen-21-554211,,,2016.0,8.0,13.0,,0,55.6008477,12.982973
800000,Rödkullastigen 9A,Lägenhet,"Almhög, Malmö kommun",2019-01-13,Maxime Melkie,https://www.hemnet.se/maklare/fastighetsbyran-malmo-169/maxime-melkie-8937,10000.0,750000.0,+50 000 kr (+7 %),Lägenhet,Bostadsrätt,3 rum,80 m²,,,1960,5199.0,https://www.hemnet.se/salda/lagenhet-3rum-almhog-malmo-kommun-rodkullastigen-9a-932973,,,2019.0,1.0,13.0,,0,55.5748633,13.0201875
1995000,Signalgatan 17,Lägenhet,"Västra Hamnen, Malmö kommun",2016-01-13,Edvin Karajkovic,https://www.hemnet.se/maklare/croisette-malmo-vastra-hamnen-12766/edvin-karajkovic-10415,29338.0,1995000.0,0 kr (±0 %),Lägenhet,Bostadsrätt,3 rum,68 m²,,,2006,4766.0,https://www.hemnet.se/salda/lagenhet-3rum-vastra-hamnen-malmo-kommun-signalgatan-17-462628,,,2016.0,1.0,13.0,,0,55.6162888,12.977735
1260000,Västra Skrävlingevägen 207,Lägenhet,"Gula Höja, Malmö kommun",2021-08-06,,,21000.0,1095000.0,+165 000 kr (+15 %),Lägenhet,Bostadsrätt,2 rum,60 m²,1.0,"2 av 3, hiss finns ej",1969,2626.0,https://www.hemnet.se/salda/lagenhet-2rum-gula-hoja-malmo-kommun-vastra-skravlingevagen-207-1432201,,,2021.0,8.0,6.0,2.0,1,55.5817114,13.0601608
1050000,Sveagatan 64 A,Lägenhet,"Limhamn, Malmö kommun",2023-04-19,Eva Malmgren,https://www.hemnet.se/maklare/east-west-maklarfirma-ab-725871/eva-malmgren-2734,33871.0,1095000.0,-45 000 kr (-4 %),Lägenhet,Bostadsrätt,1 rum,31 m²,1.0,1 av 3,1960,2506.0,https://www.hemnet.se/salda/lagenhet-1rum-limhamn-malmo-kommun-sveagatan-64-a-3245082218635888798,3360.0,,2023.0,4.0,19.0,1.0,0,55.5844525,12.9349031
1200000,Munkhättegatan 30A,Lägenhet,"Eriksfält, Malmö kommun",2021-04-09,Elsy Abou Akl,https://www.hemnet.se/maklare/bjurfors-sodermalm-2165/elsy-abou-akl-18060,19048.0,1095000.0,+105 000 kr (+10 %),Lägenhet,Bostadsrätt,2 rum,63 m²,1.0,"4 av 8, hiss finns",1962,3745.0,https://www.hemnet.se/salda/lagenhet-2rum-eriksfalt-malmo-kommun-munkhattegatan-30a-1360928,5136.0,,2021.0,4.0,9.0,4.0,1,55.5737107,13.0158094
2200000,Norra Vallgatan 6,Lägenhet,"Drottningtorget, Malmö kommun",2020-05-18,,,34375.0,2250000.0,-50 000 kr (-2 %),Lägenhet,Bostadsrätt,2 rum,64 m²,0.0,,1905,4023.0,https://www.hemnet.se/salda/lagenhet-2rum-drottningtorget-malmo-kommun-norra-vallgatan-6-1187662,,,2020.0,5.0,18.0,,0,55.6079624,13.0011724
860000,Serenadgatan 28,Lägenhet,"Högaholm, Malmö kommun",2023-03-04,Hava Shahgiriiva,https://www.hemnet.se/maklare/croisette-malmo-slottsstaden-1091/hava-shahgiriiva-19417,13438.0,950000.0,-90 000 kr (-9 %),Lägenhet,Bostadsrätt,2 rum,64 m²,1.0,"10 av 16, hiss finns",1972,4203.0,https://www.hemnet.se/salda/lagenhet-2rum-hogaholm-malmo-kommun-serenadgatan-28-6526348670591914762,,,2023.0,3.0,4.0,10.0,1,55.56114345,13.006989097410425
865000,Kronetorpsgatan 62A,Lägenhet,"Segevång, Malmö kommun",2020-06-05,Marielle Jungerup,https://www.hemnet.se/maklare/bjurfors-malmo-city-1806/marielle-jungerup-4076,15310.0,895000.0,-30 000 kr (-3 %),Lägenhet,Bostadsrätt,2 rum,"56,5 m²",1.0,,1961,3196.0,https://www.hemnet.se/salda/lagenhet-2rum-segevang-malmo-kommun-kronetorpsgatan-62a-1198588,,,2020.0,6.0,5.0,,0,55.6153314,13.0531318
750000,Tornfalksgatan 8B,Lägenhet,"Söderkulla, Malmö kommun",2017-09-06,Philip Ekdahl,https://www.hemnet.se/maklare/croisette-malmo-slottsstaden-1091/philip-ekdahl-11614,19231.0,750000.0,0 kr (±0 %),Lägenhet,Bostadsrätt,1 rum,39 m²,,,1965,1929.0,https://www.hemnet.se/salda/lagenhet-1rum-soderkulla-malmo-kommun-tornfalksgatan-8b-725687,,,2017.0,9.0,6.0,,0,55.5688127,13.0083543
1195000,Spårvägen 28A,Lägenhet,"Norra Sorgenfri, Malmö kommun",2018-09-27,Conny Knutsson,https://www.hemnet.se/maklare/bjurfors-nyproduktion-skane-ab-733751/conny-knutsson-4056,32297.0,1195000.0,0 kr (±0 %),Lägenhet,Bostadsrätt,1 rum,37 m²,,,,2296.0,https://www.hemnet.se/salda/lagenhet-1rum-norra-sorgenfri-malmo-kommun-sparvagen-28a-1002198,,,2018.0,9.0,27.0,,0,55.6005334,13.0233206
1550000,Fågelbacksgatan 27A,Lägenhet,"Slottsstaden, Malmö kommun",2020-08-16,Johan Dahlgren,https://www.hemnet.se/maklare/croisette-malmo-vastra-hamnen-12766/johan-dahlgren-465,38750.0,1595000.0,-45 000 kr (-3 %),Lägenhet,Bostadsrätt,1 rum,40 m²,1.0,,1948,2440.0,https://www.hemnet.se/salda/lagenhet-1rum-slottsstaden-malmo-kommun-fagelbacksgatan-27a-8804601061987496967,,,2020.0,8.0,16.0,,0,55.5963305,12.9813718
3000000,Kungsgatan 50B,Lägenhet,"Rörsjöstaden, Malmö kommun",2021-05-08,,,46154.0,2595000.0,+405 000 kr (+16 %),Lägenhet,Andel i bostadsförening,2 rum,65 m²,0.0,"4 av 4, hiss finns ej",1927,2611.0,https://www.hemnet.se/salda/lagenhet-2rum-rorsjostaden-malmo-kommun-kungsgatan-50b-1380888,,,2021.0,5.0,8.0,4.0,1,55.6019158,13.0118656
3035000,Mäster Henriksgatan 11D,Lägenhet,"S:t Knut / Sankt Knut, Malmö kommun",2019-06-29,Victor Jörgensen,https://www.hemnet.se/maklare/bo-laget-fastighetsformedling-716831/victor-jorgensen-9420,43357.0,2995000.0,+40 000 kr (+1 %),Lägenhet,Bostadsrätt,2 rum,70 m²,,,1933,2824.0,https://www.hemnet.se/salda/lagenhet-2rum-s-t-knut-sankt-knut-malmo-kommun-master-henriksgatan-11d-1038330,8100.0,,2019.0,6.0,29.0,,0,55.59703,13.0155559
670000,Serenadgatan 29,Lägenhet,"Högaholm / Almvik, Malmö kommun",2018-12-12,,,13958.0,645000.0,+25 000 kr (+4 %),Lägenhet,Bostadsrätt,1 rum,48 m²,,,1972,3317.0,https://www.hemnet.se/salda/lagenhet-1rum-hogaholm-almvik-malmo-kommun-serenadgatan-29-924158,,,2018.0,12.0,12.0,,0,55.55915845,13.007426155000589
615000,Abbekåsgatan 10 B,Lägenhet,"Nobel, Malmö kommun",2016-04-16,,,26739.0,595000.0,+20 000 kr (+3 %),Lägenhet,Bostadsrätt,1 rum,23 m²,,,1942,1947.0,https://www.hemnet.se/salda/lagenhet-1rum-nobel-malmo-kommun-abbekasgatan-10-b-502828,2900.0,,2016.0,4.0,16.0,,0,55.5920084,13.0217886
1500000,Karlskronaplan 6,Lägenhet,"Västra Sorgenfri, Malmö kommun",2021-09-08,Sara Persson,https://www.hemnet.se/maklare/bjurfors-malmo-city-1806/sara-persson-8993,34091.0,1395000.0,+105 000 kr (+8 %),Lägenhet,Bostadsrätt,"1,5 rum",44 m²,0.0,"2 av 4, hiss finns ej",1935,2682.0,"https://www.hemnet.se/salda/lagenhet-1,5rum-vastra-sorgenfri-malmo-kommun-karlskronaplan-6-1452423",,,2021.0,9.0,8.0,2.0,1,55.5937801,13.0183662
1760000,Grönegatan 2,Lägenhet,"Drottningtorget, Malmö kommun",2020-07-06,,,23467.0,1895000.0,-135 000 kr (-7 %),Lägenhet,Bostadsrätt,2 rum,75 m²,0.0,,1956,4412.0,https://www.hemnet.se/salda/lagenhet-2rum-drottningtorget-malmo-kommun-gronegatan-2-1215650,,,2020.0,7.0,6.0,,0,55.6065853,13.0110644
3400000,Munkgatan 3,Lägenhet,"Triangeln, Malmö kommun",2019-04-25,Maxime Melkie,https://www.hemnet.se/maklare/fastighetsbyran-malmo-169/maxime-melkie-8937,40964.0,3195000.0,+205 000 kr (+6 %),Lägenhet,Bostadsrätt,"2,5 rum",83 m²,,,1929,4371.0,"https://www.hemnet.se/salda/lagenhet-2,5rum-triangeln-malmo-kommun-munkgatan-3-994414",,,2019.0,4.0,25.0,,0,55.5954596,13.0003688
1080000,Solgatan 27D,Lägenhet,"Kirseberg, Malmö kommun",2020-10-24,,,18462.0,1095000.0,-15 000 kr (-1 %),Lägenhet,Bostadsrätt,2 rum,"58,5 m²",0.0,"3 av 3, hiss finns ej",1949,3214.0,https://www.hemnet.se/salda/lagenhet-2rum-kirseberg-malmo-kommun-solgatan-27d-1276796,,,2020.0,10.0,24.0,3.0,1,55.6092318,13.0382192
1795000,Sandegårdsgatan 24B,Lägenhet,"Limhamn, Malmö kommun",2020-02-09,Mikael  Gröndahl,https://www.hemnet.se/maklare/bjurfors-limhamn-1807/mikael-grondahl-15691,27701.0,1795000.0,0 kr (±0 %),Lägenhet,Bostadsrätt,2 rum,"64,8 m²",1.0,,,3346.0,https://www.hemnet.se/salda/lagenhet-2rum-limhamn-malmo-kommun-sandegardsgatan-24b-1320773,,,2020.0,2.0,9.0,,0,55.5805121,12.924457
2200000,Fredriksbergsgatan 9,Lägenhet,"Slussen, Malmö kommun",2017-04-12,Peter Starck,https://www.hemnet.se/maklare/bulow-lind-fastighetsformedling-28267/peter-starck-2082,25882.0,1895000.0,+305 000 kr (+16 %),Lägenhet,Bostadsrätt,3 rum,85 m²,,,1935,4898.0,https://www.hemnet.se/salda/lagenhet-3rum-slussen-malmo-kommun-fredriksbergsgatan-9-658739,,,2017.0,4.0,12.0,,0,55.6070406,13.0188054
1185000,Rödkullastigen 5A,Lägenhet,"Almhög / Nydala / Mobilia, Malmö kommun",2017-04-21,,,14813.0,1095000.0,+90 000 kr (+8 %),Lägenhet,Bostadsrätt,3 rum,80 m²,,,1959,4530.0,https://www.hemnet.se/salda/lagenhet-3rum-almhog-nydala-mobilia-malmo-kommun-rodkullastigen-5a-661742,,,2017.0,4.0,21.0,,0,55.5753797,13.0183382
2600000,Andréegatan 11A,Lägenhet,"Rörsjöstaden, Malmö kommun",2020-06-18,Johan Berglund,https://www.hemnet.se/maklare/husmanhagberg-malmo-4545/johan-berglund-2105,42623.0,2495000.0,+105 000 kr (+4 %),Lägenhet,Bostadsrätt,2 rum,61 m²,1.0,,1900,3314.0,https://www.hemnet.se/salda/lagenhet-2rum-rorsjostaden-malmo-kommun-andreegatan-11a-1205543,,,2020.0,6.0,18.0,,0,55.6025557,13.0164234
1700000,Krutmeijersgatan 12A,Lägenhet,"Hästhagen, Malmö kommun",2024-03-27,Haris Horozovic,https://www.hemnet.se/maklare/fastighetsbyran-malmo-169/haris-horozovic-15581,38636.0,1795000.0,-95 000 kr (-5 %),Lägenhet,Bostadsrätt,2 rum,44 m²,,"1 av 4, hiss finns ej",1947,3389.0,https://www.hemnet.se/salda/lagenhet-2rum-hasthagen-malmo-kommun-krutmeijersgatan-12a-7297945310143733715,900.0,,2024.0,3.0,27.0,1.0,1,55.5960695,12.9885196
1200000,Munkhättegatan 36A,Lägenhet,"Nydala, Malmö kommun",2022-09-02,Karl Fransson,https://www.hemnet.se/maklare/bjurfors-malmo-vaster-12366/karl-fransson-19714,19355.0,1095000.0,+105 000 kr (+10 %),Lägenhet,Bostadsrätt,2 rum,62 m²,1.0,"4 av 4, hiss finns ej",1963,3909.0,https://www.hemnet.se/salda/lagenhet-2rum-nydala-malmo-kommun-munkhattegatan-36a-3607758120624991299,,,2022.0,9.0,2.0,4.0,1,55.5586925,13.0106418
2830000,Helmfeltsgatan 3,Lägenhet,"Davidshall/Malmö Opera, Malmö kommun",2021-05-20,Thierry Asso,https://www.hemnet.se/maklare/bjurfors-malmo-city-1806/thierry-asso-12501,62445.0,2395000.0,+435 000 kr (+18 %),Lägenhet,Andel i bostadsförening,"1,5 rum","45,3 m²",1.0,"4 av 5, hiss finns",1926,2550.0,"https://www.hemnet.se/salda/lagenhet-1,5rum-davidshall-malmo-opera-malmo-kommun-helmfeltsgatan-3-1388314",,,2021.0,5.0,20.0,4.0,1,55.59790625,12.99527833869067
850000,Södra Gulsparvsgatan 52,Lägenhet,"Söderkulla, Malmö kommun",2024-02-23,Ilham Memic,https://www.hemnet.se/maklare/lansforsakringar-fastighetsformedling-malmo-39311/ilham-memic-24169,14167.0,945000.0,-95 000 kr (-10 %),Lägenhet,Bostadsrätt,2 rum,60 m²,1.0,"3 av 5, hiss finns",1966,4175.0,https://www.hemnet.se/salda/lagenhet-2rum-soderkulla-malmo-kommun-sodra-gulsparvsgatan-52-357304215823568467,3000.0,,2024.0,2.0,23.0,3.0,1,55.5669711,13.0052596
1575000,Stadiongatan 55D,Lägenhet,"Lorensborg, Malmö kommun",2020-02-17,Daniel Lundstam,https://www.hemnet.se/maklare/bjurfors-malmo-oster-2048/daniel-lundstam-15451,29717.0,1495000.0,+80 000 kr (+5 %),Lägenhet,Bostadsrätt,2 rum,53 m²,1.0,,1959,2944.0,https://www.hemnet.se/salda/lagenhet-2rum-lorensborg-malmo-kommun-stadiongatan-55d-1143327,1440.0,,2020.0,2.0,17.0,,0,55.5840392,12.9810834
1710000,Grönalundsgatan 11B,Lägenhet,"Limhamn, Malmö kommun",2021-11-08,,,28500.0,1725000.0,-15 000 kr (-1 %),Lägenhet,Bostadsrätt,2 rum,60 m²,1.0,"4 av 4, hiss finns ej",1954,4035.0,https://www.hemnet.se/salda/lagenhet-2rum-limhamn-malmo-kommun-gronalundsgatan-11b-1493369,4200.0,,2021.0,11.0,8.0,4.0,1,55.5780653,12.9324963
890000,Duvhöksgatan 2 B,Lägenhet,"Söderkulla, Malmö kommun",2017-06-28,,,15478.0,845000.0,+45 000 kr (+5 %),Lägenhet,Bostadsrätt,2 rum,"57,5 m²",,,1962,2682.0,https://www.hemnet.se/salda/lagenhet-2rum-soderkulla-malmo-kommun-duvhoksgatan-2-b-698421,3900.0,,2017.0,6.0,28.0,,0,55.5707513,13.0092559
2015000,Karlshamnsgatan 3,Lägenhet,"Folkets Park, Malmö kommun",2017-02-20,Ericka Nguyen,https://www.hemnet.se/maklare/fastighetsbyran-malmo-169/ericka-nguyen-8936,32500.0,1495000.0,+520 000 kr (+35 %),Lägenhet,Bostadsrätt,"2,5 rum",62 m²,,,1937,3372.0,"https://www.hemnet.se/salda/lagenhet-2,5rum-folkets-park-malmo-kommun-karlshamnsgatan-3-635650",4500.0,,2017.0,2.0,20.0,,0,55.5927353,13.0174872
1220000,Nobeltorget 7,Lägenhet,"Nobeltorget, Malmö kommun",2024-03-08,Elin Olsson,https://www.hemnet.se/maklare/bo-laget-fastighetsformedling-716831/elin-olsson-22680,29612.0,1195000.0,+25 000 kr (+2 %),Lägenhet,Bostadsrätt,"1,5 rum","41,2 m²",1.0,"4 av 4, hiss finns ej",1936,3155.0,"https://www.hemnet.se/salda/lagenhet-1,5rum-nobeltorget-malmo-kommun-nobeltorget-7-1581043035431079575",,,2024.0,3.0,8.0,4.0,1,55.591235,13.0200968
1364000,Koristgatan 14,Lägenhet,"Lindeborg, Malmö kommun",2023-08-25,Artemiz Eskafi,https://www.hemnet.se/maklare/fastighetsbyran-malmo-169/artemiz-eskafi-17058,22000.0,1495000.0,-131 000 kr (-9 %),Lägenhet,Bostadsrätt,2 rum,62 m²,1.0,"2 av 3, hiss finns ej",,3723.0,https://www.hemnet.se/salda/lagenhet-2rum-lindeborg-malmo-kommun-koristgatan-14-3040411114667630414,,,2023.0,8.0,25.0,2.0,1,55.5579828,12.9868971
2600000,Hjulhamnsgatan 8,Lägenhet,"Gamla Väster, Malmö kommun",2016-07-29,,,46429.0,2495000.0,+105 000 kr (+4 %),Lägenhet,Bostadsrätt,2 rum,56 m²,,,2008,4069.0,https://www.hemnet.se/salda/lagenhet-2rum-gamla-vaster-malmo-kommun-hjulhamnsgatan-8-549417,3876.0,,2016.0,7.0,29.0,,0,55.604532,12.9987561
1295000,Vårgatan 3C,Lägenhet,"Östervärn, Malmö kommun",2021-06-15,Jesper Rindmo,https://www.hemnet.se/maklare/croisette-goteborg-732951/jesper-rindmo-17392,35972.0,1295000.0,0 kr (±0 %),Lägenhet,Bostadsrätt,2 rum,36 m²,0.0,"1 av 4, hiss finns ej",1936,2461.0,https://www.hemnet.se/salda/lagenhet-2rum-ostervarn-malmo-kommun-vargatan-3c-1407017,,,2021.0,6.0,15.0,1.0,1,55.6058756,13.0268242
850000,Sjöblads väg 11,Lägenhet,"Rosengård, Malmö kommun",2022-02-25,,,14167.0,825000.0,+25 000 kr (+3 %),Lägenhet,Bostadsrätt,2 rum,60 m²,1.0,"3 av 3, hiss finns ej",1968,3814.0,https://www.hemnet.se/salda/lagenhet-2rum-rosengard-malmo-kommun-sjoblads-vag-11-6397862109652981624,,,2022.0,2.0,25.0,3.0,1,55.5890718,13.0381563
950000,Kungsgatan 27B,Lägenhet,"Rörsjöstaden, Malmö kommun",2014-07-15,,,13014.0,1075000.0,-125 000 kr (-12 %),Lägenhet,Bostadsrätt,"3,5 rum",73 m²,,,1935,4986.0,"https://www.hemnet.se/salda/lagenhet-3,5rum-rorsjostaden-malmo-kommun-kungsgatan-27b-220996",,,2014.0,7.0,15.0,,0,55.6019158,13.0118656
1340000,Nobelvägen 147G,Lägenhet,"Ellstorp, Malmö kommun",2023-06-06,Mohammad Omran,https://www.hemnet.se/maklare/lansforsakringar-fastighetsformedling-malmo-39311/mohammad-omran-21383,26275.0,1395000.0,-55 000 kr (-4 %),Lägenhet,Bostadsrätt,2 rum,51 m²,1.0,"3 av 6, hiss finns",1938,4087.0,https://www.hemnet.se/salda/lagenhet-2rum-ellstorp-malmo-kommun-nobelvagen-147g-7735753665357386328,,,2023.0,6.0,6.0,3.0,1,55.6048199,13.0294768
880000,Norrbäcksgatan 15,Lägenhet,"Kroksbäck, Malmö kommun",2016-10-09,,,13750.0,750000.0,+130 000 kr (+17 %),Lägenhet,Bostadsrätt,2 rum,64 m²,,,1966,3376.0,https://www.hemnet.se/salda/lagenhet-2rum-kroksback-malmo-kommun-norrbacksgatan-15-585699,,,2016.0,10.0,9.0,,0,55.5770382,12.9765442
4675000,Limhamnsvägen 6A,Lägenhet,"Ribersborg, Malmö kommun",2020-12-17,,,74681.0,4695000.0,-20 000 kr (±0 %),Lägenhet,Bostadsrätt,2 rum,"62,6 m²",1.0,"9 av 9, hiss finns",1943,2767.0,https://www.hemnet.se/salda/lagenhet-2rum-ribersborg-malmo-kommun-limhamnsvagen-6a-1307340,,1.0,2020.0,12.0,17.0,9.0,1,55.5859992,12.9294591
1255000,Kronetorpsgatan 60A,Lägenhet,"Segevång, Malmö kommun",2022-05-24,Ebba Svensson,https://www.hemnet.se/maklare/bjurfors-goteborg-city-2150/ebba-svensson-19442,21271.0,1195000.0,+60 000 kr (+5 %),Lägenhet,Bostadsrätt,2 rum,59 m²,1.0,"6 av 9, hiss finns",1961,3765.0,https://www.hemnet.se/salda/lagenhet-2rum-segevang-malmo-kommun-kronetorpsgatan-60a-1536153777051036456,,,2022.0,5.0,24.0,6.0,1,55.6157722,13.0526112
1300000,Balladgatan 35,Lägenhet,"Högaholm, Malmö kommun",2021-05-20,Marina Nilsson,https://www.hemnet.se/maklare/erik-olsson-fastighetsformedling-435894/marina-nilsson-12686,15951.0,1195000.0,+105 000 kr (+9 %),Lägenhet,Bostadsrätt,3 rum,"81,5 m²",1.0,"2 av 8, hiss finns",1971,3848.0,https://www.hemnet.se/salda/lagenhet-3rum-hogaholm-malmo-kommun-balladgatan-35-1388496,8500.0,,2021.0,5.0,20.0,2.0,1,55.5625371,13.0117105
1820000,Kronborgsvägen 18B,Lägenhet,"Pildammarna, Malmö kommun",2024-01-22,Frida Nordeborg,https://www.hemnet.se/maklare/erik-olsson-fastighetsformedling-435894/frida-nordeborg-16470,33704.0,1895000.0,-75 000 kr (-4 %),Lägenhet,Bostadsrätt,2 rum,54 m²,1.0,"2 av 4, hiss finns",1946,4827.0,https://www.hemnet.se/salda/lagenhet-2rum-pildammarna-malmo-kommun-kronborgsvagen-18b-8808018071121370391,2280.0,,2024.0,1.0,22.0,2.0,1,55.5923968,12.9854321
1995000,Skvadronsgatan 8,Lägenhet,"Ribersborg, Malmö kommun",2015-06-03,Nina Ollhage,https://www.hemnet.se/maklare/croisette-staffanstorp-727111/nina-ollhage-2200,28913.0,1995000.0,0 kr (±0 %),Lägenhet,Bostadsrätt,3 rum,69 m²,,,1936,3734.0,https://www.hemnet.se/salda/lagenhet-3rum-ribersborg-malmo-kommun-skvadronsgatan-8-363424,5200.0,,2015.0,6.0,3.0,,0,55.5984812,12.9784999
1130000,Erikslustvägen 36H,Lägenhet,"Erikslust, Malmö kommun",2023-04-13,Rama Bernin,https://www.hemnet.se/maklare/croisette-malmo-vastra-hamnen-12766/rama-bernin-21858,41852.0,1195000.0,-65 000 kr (-5 %),Lägenhet,Bostadsrätt,1 rum,27 m²,0.0,"2 av 3, hiss finns ej",1953,2064.0,https://www.hemnet.se/salda/lagenhet-1rum-erikslust-malmo-kommun-erikslustvagen-36h-3103106573451440815,,,2023.0,4.0,13.0,2.0,1,55.5914807,12.9637399
1245000,Ellstorpsgatan 4C,Lägenhet,"Ellstorp, Malmö kommun",2019-09-20,,,23942.0,1195000.0,+50 000 kr (+4 %),Lägenhet,Bostadsrätt,2 rum,52 m²,,,1938,3837.0,https://www.hemnet.se/salda/lagenhet-2rum-ellstorp-malmo-kommun-ellstorpsgatan-4c-1077433,4800.0,,2019.0,9.0,20.0,,0,55.6043521,13.0300646
1350000,Ehrensvärdsgatan 2B,Lägenhet,"Rörsjöstaden, Malmö kommun",2014-08-12,Johan Dahlgren,https://www.hemnet.se/maklare/croisette-malmo-vastra-hamnen-12766/johan-dahlgren-465,18000.0,1250000.0,+100 000 kr (+8 %),Lägenhet,Bostadsrätt,3 rum,75 m²,,,1910,3591.0,https://www.hemnet.se/salda/lagenhet-3rum-rorsjostaden-malmo-kommun-ehrensvardsgatan-2b-229937,3895.0,,2014.0,8.0,12.0,,0,55.6043778,13.0223322
2275000,Kilian Zollsgatan 21 B,Lägenhet,"Ribersborg, Malmö kommun",2021-08-05,Peter Starck,https://www.hemnet.se/maklare/bulow-lind-fastighetsformedling-28267/peter-starck-2082,42925.0,1895000.0,+380 000 kr (+20 %),Lägenhet,Bostadsrätt,2 rum,53 m²,,1 av 4,1952,3853.0,https://www.hemnet.se/salda/lagenhet-2rum-ribersborg-malmo-kommun-kilian-zollsgatan-21-b-1431774,,,2021.0,8.0,5.0,1.0,0,55.6016543,12.980564
1045000,Pilåkersvägen 4A,Lägenhet,"Dammfri, Malmö kommun",2023-06-27,Safeer Samawi,https://www.hemnet.se/maklare/croisette-malmo-slottsstaden-1091/safeer-samawi-19857,41800.0,1195000.0,-150 000 kr (-13 %),Lägenhet,Bostadsrätt,1 rum,25 m²,0.0,"3 av 4, hiss finns",1951,2439.0,https://www.hemnet.se/salda/lagenhet-1rum-dammfri-malmo-kommun-pilakersvagen-4a-3543973007997385742,,,2023.0,6.0,27.0,3.0,1,55.5892198,12.9763779
1250000,Solvändestigen 7A,Lägenhet,"Almhög, Malmö kommun",2021-05-05,,,21552.0,1095000.0,+155 000 kr (+14 %),Lägenhet,Bostadsrätt,2 rum,58 m²,1.0,"4 av 4, hiss finns ej",1960,3885.0,https://www.hemnet.se/salda/lagenhet-2rum-almhog-malmo-kommun-solvandestigen-7a-1378442,,,2021.0,5.0,5.0,4.0,1,55.575674,13.021576
1420000,Ängelholmsgatan 5,Lägenhet,"Möllevången, Malmö kommun",2016-07-20,,,25357.0,1195000.0,+225 000 kr (+19 %),Lägenhet,Bostadsrätt,2 rum,56 m²,,,1904,3532.0,https://www.hemnet.se/salda/lagenhet-2rum-mollevangen-malmo-kommun-angelholmsgatan-5-547267,2723.0,,2016.0,7.0,20.0,,0,55.5930536,13.0091703
1140000,Bragegatan 1A,Lägenhet,"Dalaplan, Malmö kommun",2020-05-29,,,27273.0,1095000.0,+45 000 kr (+4 %),Lägenhet,Bostadsrätt,"1,5 rum","41,8 m²",1.0,,1939,2196.0,"https://www.hemnet.se/salda/lagenhet-1,5rum-dalaplan-malmo-kommun-bragegatan-1a-1194498",,,2020.0,5.0,29.0,,0,55.5839859,13.0146846
3025000,Västra Varvsgatan 21D,Lägenhet,"Västra Hamnen, Malmö kommun",2020-08-19,Emil Sjöberg,https://www.hemnet.se/maklare/croisette-malmo-vastra-hamnen-12766/emil-sjoberg-13478,51271.0,2850000.0,+175 000 kr (+6 %),Lägenhet,Bostadsrätt,2 rum,59 m²,1.0,,2016,3352.0,https://www.hemnet.se/salda/lagenhet-2rum-vastra-hamnen-malmo-kommun-vastra-varvsgatan-21d-1234161,,,2020.0,8.0,19.0,,0,55.6129344,12.9773523
2220000,Lilla Varvsgatan 23A,Lägenhet,"Västra Hamnen, Malmö kommun",2020-11-09,Mathilda Skoglund,https://www.hemnet.se/maklare/bjurfors-malmo-city-1806/mathilda-skoglund-11409,46250.0,2195000.0,+25 000 kr (+1 %),Lägenhet,Bostadsrätt,2 rum,48 m²,1.0,"2 av 6, hiss finns",2020,2962.0,https://www.hemnet.se/salda/lagenhet-2rum-vastra-hamnen-malmo-kommun-lilla-varvsgatan-23a-1285208,,,2020.0,11.0,9.0,2.0,1,55.6144582,12.9864738
2250000,Kulladalsgatan 20C,Lägenhet,"Kulladal/Gröndal, Malmö kommun",2021-06-01,,,26012.0,1995000.0,+255 000 kr (+13 %),Lägenhet,Bostadsrätt,3 rum,"86,5 m²",1.0,"7 av 8, hiss finns",1965,4888.0,https://www.hemnet.se/salda/lagenhet-3rum-kulladal-grondal-malmo-kommun-kulladalsgatan-20c-1397332,,,2021.0,6.0,1.0,7.0,1,55.5712587,13.0020628
1750000,Friggs Gränd 14,Lägenhet,"Hyllie, Malmö kommun",2021-07-23,Henrik Karlsson,https://www.hemnet.se/maklare/mohv-hyllie-725851/henrik-karlsson-63,44872.0,1695000.0,+55 000 kr (+3 %),Lägenhet,Bostadsrätt,1 rum,39 m²,1.0,"3 av 5, hiss finns",2018,2342.0,https://www.hemnet.se/salda/lagenhet-1rum-hyllie-malmo-kommun-friggs-grand-14-1427418,,,2021.0,7.0,23.0,3.0,1,55.5626378,12.9793121
2225000,Västra Rönneholmsvägen 55 D,Lägenhet,"Hästhagen, Malmö kommun",2018-06-07,Malin Ekvall Jangvert,https://www.hemnet.se/maklare/bjurfors-limhamn-1807/malin-ekvall-jangvert-12871,44500.0,1895000.0,+330 000 kr (+17 %),Lägenhet,Bostadsrätt,2 rum,50 m²,,,,2091.0,https://www.hemnet.se/salda/lagenhet-2rum-hasthagen-malmo-kommun-vastra-ronneholmsvagen-55-d-840366,1800.0,,2018.0,6.0,7.0,,0,55.5954521,12.9852378
1045000,Serenadgatan 70,Lägenhet,"Högaholm, Malmö kommun",2022-01-11,Sam Lashkari,https://www.hemnet.se/maklare/bjurfors-malmo-city-1806/sam-lashkari-17811,16202.0,895000.0,+150 000 kr (+17 %),Lägenhet,Bostadsrätt,2 rum,"64,5 m²",1.0,"2 av 8, hiss finns",1971,3186.0,https://www.hemnet.se/salda/lagenhet-2rum-hogaholm-malmo-kommun-serenadgatan-70-7755165408700023516,,,2022.0,1.0,11.0,2.0,1,55.5601985,13.0119505
5250000,Tessins Väg 19A,Lägenhet,"Ribersborg, Malmö kommun",2021-10-26,,,48165.0,4995000.0,+255 000 kr (+5 %),Lägenhet,Bostadsrätt,4 rum,109 m²,1.0,"7 av 8, hiss finns",1957,4927.0,https://www.hemnet.se/salda/lagenhet-4rum-ribersborg-malmo-kommun-tessins-vag-19a-1485035,,,2021.0,10.0,26.0,7.0,1,55.6002438,12.9744988
2900000,Kastellgatan 8,Lägenhet,"Stadsteatern / Davidshall, Malmö kommun",2015-05-18,Per Jörgensen,https://www.hemnet.se/maklare/bo-laget-fastighetsformedling-716831/per-jorgensen-2680,37662.0,2695000.0,+205 000 kr (+8 %),Lägenhet,Bostadsrätt,3 rum,77 m²,,,1930,4338.0,https://www.hemnet.se/salda/lagenhet-3rum-stadsteatern-davidshall-malmo-kommun-kastellgatan-8-351987,4900.0,,2015.0,5.0,18.0,,0,55.5982661,12.9942424
760000,Kronetorpsgatan 60A,Lägenhet,"Segevång, Malmö kommun",2023-11-30,Silva Curraj,https://www.hemnet.se/maklare/erik-olsson-fastighetsformedling-435894/silva-curraj-325,20000.0,795000.0,-35 000 kr (-4 %),Lägenhet,Bostadsrätt,"1,5 rum",38 m²,1.0,"2 av 9, hiss finns",1961,2808.0,"https://www.hemnet.se/salda/lagenhet-1,5rum-segevang-malmo-kommun-kronetorpsgatan-60a-1962396210758480518",2280.0,,2023.0,11.0,30.0,2.0,1,55.6157722,13.0526112
433000,Jägersrovägen 7A,Lägenhet,"Västra Kattarp/Hindby, Malmö kommun",2022-11-15,Åsa Öjes,https://www.hemnet.se/maklare/mohv-svedala-733831/asa-ojes-6815,17320.0,395000.0,+38 000 kr (+10 %),Lägenhet,Bostadsrätt,1 rum,25 m²,0.0,"1 av 3, hiss finns ej",1956,1890.0,https://www.hemnet.se/salda/lagenhet-1rum-vastra-kattarp-hindby-malmo-kommun-jagersrovagen-7a-586007172736107792,,1.0,2022.0,11.0,15.0,1.0,1,55.5786389,13.0329459
930000,Vattenverksvägen 36A,Lägenhet,"Kirseberg, Malmö kommun",2018-11-17,Ola Petersson,https://www.hemnet.se/maklare/bjurfors-malmo-oster-2048/ola-petersson-13621,25833.0,795000.0,+135 000 kr (+17 %),Lägenhet,Bostadsrätt,2 rum,36 m²,,,1949,2957.0,https://www.hemnet.se/salda/lagenhet-2rum-kirseberg-malmo-kommun-vattenverksvagen-36a-913169,,,2018.0,11.0,17.0,,0,55.6085421,13.0779344
2195000,Krutmeijersgatan 10C,Lägenhet,"Fågelbacken, Malmö kommun",2024-04-02,Max Lexert,https://www.hemnet.se/maklare/erik-olsson-fastighetsformedling-720071/max-lexert-13499,39909.0,2195000.0,0 kr (±0 %),Lägenhet,Bostadsrätt,3 rum,55 m²,0.0,"2 av 4, hiss finns ej",1944,4115.0,https://www.hemnet.se/salda/lagenhet-3rum-fagelbacken-malmo-kommun-krutmeijersgatan-10c-276102987687211045,9240.0,,2024.0,4.0,2.0,2.0,1,55.5960695,12.9885196
1995000,Albinsrogatan 55,Lägenhet,"Borgmästaregården, Malmö kommun",2016-09-21,,,23064.0,1995000.0,0 kr (±0 %),Lägenhet,Bostadsrätt,3 rum,"86,5 m²",,,1966,4033.0,https://www.hemnet.se/salda/lagenhet-3rum-borgmastaregarden-malmo-kommun-albinsrogatan-55-575684,2040.0,,2016.0,9.0,21.0,,0,55.5805459,12.9958775
2000000,Nordlinds väg 100A,Lägenhet,"Erikslust, Malmö kommun",2024-02-02,Malin van Ekström Ahlby,https://www.hemnet.se/maklare/erik-olsson-fastighetsformedling-720071/malin-van-ekstrom-ahlby-20906,37037.0,2095000.0,-95 000 kr (-5 %),Lägenhet,Bostadsrätt,2 rum,54 m²,1.0,"3 av 4, hiss finns ej",1956,3790.0,https://www.hemnet.se/salda/lagenhet-2rum-erikslust-malmo-kommun-nordlinds-vag-100a-4840417516031524106,3700.0,,2024.0,2.0,2.0,3.0,1,55.5953131,12.9696472
2250000,Köpenhamnsvägen 46C,Lägenhet,"Slottsstaden/erikslust, Malmö kommun",2021-06-10,Johanna Olsson,https://www.hemnet.se/maklare/fastighetsbyran-malmo-169/johanna-olsson-9058,37500.0,1850000.0,+400 000 kr (+22 %),Lägenhet,Bostadsrätt,2 rum,60 m²,1.0,"2 av 7, hiss finns",1954,3374.0,https://www.hemnet.se/salda/lagenhet-2rum-slottsstaden-erikslust-malmo-kommun-kopenhamnsvagen-46c-1404461,8118.0,,2021.0,6.0,10.0,2.0,1,55.5942129,12.9656625
1950000,Vimmerbyvägen 7,Lägenhet,"Gyllins Trädgård, Malmö kommun",2022-12-21,Sandra Kalamar,https://www.hemnet.se/maklare/erik-olsson-fastighetsformedling-435894/sandra-kalamar-18996,30000.0,2095000.0,-145 000 kr (-7 %),Lägenhet,Bostadsrätt,2 rum,65 m²,0.0,"1 av 4, hiss finns",2011,3973.0,https://www.hemnet.se/salda/lagenhet-2rum-gyllins-tradgard-malmo-kommun-vimmerbyvagen-7-5049361127105201272,3600.0,1.0,2022.0,12.0,21.0,1.0,1,55.5941118,13.0941718
1235000,Mäster Nilsgatan 24,Lägenhet,"City, Malmö kommun",2017-07-13,Marielle Jungerup,https://www.hemnet.se/maklare/bjurfors-malmo-city-1806/marielle-jungerup-4076,35286.0,1195000.0,+40 000 kr (+3 %),Lägenhet,Bostadsrätt,1 rum,35 m²,,,1972-74,1934.0,https://www.hemnet.se/salda/lagenhet-1rum-city-malmo-kommun-master-nilsgatan-24-703913,,,2017.0,7.0,13.0,,0,55.6071399,13.0043767
5000000,Rosengrens gata 7A,Lägenhet,"Limhamns Sjöstad, Malmö kommun",2021-10-27,Johan Bergengren,https://www.hemnet.se/maklare/erik-olsson-fastighetsformedling-720071/johan-bergengren-19069,51546.0,4995000.0,+5 000 kr (±0 %),Lägenhet,Bostadsrätt,3 rum,97 m²,1.0,"2 av 5, hiss finns",2019,5743.0,https://www.hemnet.se/salda/lagenhet-3rum-limhamns-sjostad-malmo-kommun-rosengrens-gata-7a-1485948,3220.0,,2021.0,10.0,27.0,2.0,1,55.5909394,12.9323109
2195000,Kristianstadsgatan 39B,Lägenhet,"Möllevången, Malmö kommun",2021-08-13,,,36583.0,2195000.0,0 kr (±0 %),Lägenhet,Bostadsrätt,"2,5 rum",60 m²,0.0,"3 av 4, hiss finns ej",1936,3626.0,"https://www.hemnet.se/salda/lagenhet-2,5rum-mollevangen-malmo-kommun-kristianstadsgatan-39b-1435246",,,2021.0,8.0,13.0,3.0,1,55.5914708,13.0152613
1475000,Gustaf Rydbergsgatan 14B,Lägenhet,"Ribersborg, Malmö kommun",2019-08-28,Johan Dahlgren,https://www.hemnet.se/maklare/croisette-malmo-vastra-hamnen-12766/johan-dahlgren-465,35976.0,1475000.0,0 kr (±0 %),Lägenhet,Bostadsrätt,1 rum,41 m²,,,1944,3117.0,https://www.hemnet.se/salda/lagenhet-1rum-ribersborg-malmo-kommun-gustaf-rydbergsgatan-14b-1063260,,,2019.0,8.0,28.0,,0,55.6002731,12.9804084
1850000,Bangatan 6C,Lägenhet,"Möllevången, Malmö kommun",2022-04-11,Hava Shahgiriiva,https://www.hemnet.se/maklare/croisette-malmo-slottsstaden-1091/hava-shahgiriiva-19417,30081.0,1795000.0,+55 000 kr (+3 %),Lägenhet,Bostadsrätt,2 rum,"61,5 m²",1.0,"1 av 4, hiss finns ej",1964,3335.0,https://www.hemnet.se/salda/lagenhet-2rum-mollevangen-malmo-kommun-bangatan-6c-2639770117249208739,,,2022.0,4.0,11.0,1.0,1,55.5894242,13.0097093
2095000,Bomgatan 18,Lägenhet,"Västra Hamnen, Malmö kommun",2023-11-20,Labinot Krasniqi,https://www.hemnet.se/maklare/erik-olsson-fastighetsformedling-435894/labinot-krasniqi-8114,38796.0,2295000.0,-200 000 kr (-9 %),Lägenhet,Bostadsrätt,2 rum,54 m²,1.0,"2 av 6, hiss finns",2023,4665.0,https://www.hemnet.se/salda/lagenhet-2rum-vastra-hamnen-malmo-kommun-bomgatan-18-8643649564926267135,2280.0,,2023.0,11.0,20.0,2.0,1,55.6127345,12.9805326
695000,Sallerupsvägen 32F,Lägenhet,"Ellstorp, Malmö kommun",2016-08-31,Karin Liss,https://www.hemnet.se/maklare/svensk-fastighetsformedling-gagnef-701973/karin-liss-8996,19857.0,695000.0,0 kr (±0 %),Lägenhet,Bostadsrätt,"1,5 rum",35 m²,,,1943,2410.0,"https://www.hemnet.se/salda/lagenhet-1,5rum-ellstorp-malmo-kommun-sallerupsvagen-32f-564471",1800.0,,2016.0,8.0,31.0,,0,55.6023706,13.0341807
2850000,Signalgatan 6,Lägenhet,"Västra Hamnen, Malmö kommun",2023-08-07,Jessica Johansson,https://www.hemnet.se/maklare/fastighetsbyran-malmo-169/jessica-johansson-9359,50893.0,2995000.0,-145 000 kr (-5 %),Lägenhet,Bostadsrätt,2 rum,56 m²,1.0,"1 av 4, hiss finns",,3385.0,https://www.hemnet.se/salda/lagenhet-2rum-vastra-hamnen-malmo-kommun-signalgatan-6-3072946315874972114,,1.0,2023.0,8.0,7.0,1.0,1,55.6159525,12.977705732850776
760000,Balladgatan 17,Lägenhet,"Högaholm, Malmö kommun",2015-02-25,,,12160.0,795000.0,-35 000 kr (-4 %),Lägenhet,Bostadsrätt,2 rum,"62,5 m²",,,1971,3370.0,https://www.hemnet.se/salda/lagenhet-2rum-hogaholm-malmo-kommun-balladgatan-17-307071,5600.0,,2015.0,2.0,25.0,,0,55.5617177,13.0098074
1645000,Branteviksgatan 14A,Lägenhet,"Östra Sorgenfri, Malmö kommun",2020-07-16,,,14887.0,1795000.0,-150 000 kr (-8 %),Lägenhet,Bostadsrätt,5 rum,"110,5 m²",1.0,,1956,7094.0,https://www.hemnet.se/salda/lagenhet-5rum-ostra-sorgenfri-malmo-kommun-branteviksgatan-14a-1310295,,,2020.0,7.0,16.0,,0,55.5924577,13.0313604
2575000,Lagmansgatan 6A,Lägenhet,"Borgmästaregården, Malmö kommun",2022-03-23,,,30655.0,2395000.0,+180 000 kr (+8 %),Lägenhet,Bostadsrätt,3 rum,84 m²,1.0,"10 av 16, hiss finns",1965,4980.0,https://www.hemnet.se/salda/lagenhet-3rum-borgmastaregarden-malmo-kommun-lagmansgatan-6a-5188012985001850783,,,2022.0,3.0,23.0,10.0,1,55.5840957,12.9958405
1695000,Lägatan 21,Lägenhet,"Dockan, Malmö kommun",2019-06-25,Eric Swahn,https://www.hemnet.se/maklare/bjurfors-nyproduktion-skane-ab-733751/eric-swahn-9130,51364.0,1695000.0,0 kr (±0 %),Lägenhet,Bostadsrätt,1 rum,33 m²,,,2019,2254.0,https://www.hemnet.se/salda/lagenhet-1rum-dockan-malmo-kommun-lagatan-21-1036299,,,2019.0,6.0,25.0,,0,55.613945,12.9872584
535000,Östra Farmvägen 19BA,Lägenhet,"Norra Sorgenfri, Malmö kommun",2023-11-15,Emilia Susnjevic,https://www.hemnet.se/maklare/erik-olsson-fastighetsformedling-435894/emilia-susnjevic-23045,15286.0,625000.0,-90 000 kr (-14 %),Lägenhet,Bostadsrätt,1 rum,35 m²,1.0,"3 av 4, hiss finns",2021,6097.0,https://www.hemnet.se/salda/lagenhet-1rum-norra-sorgenfri-malmo-kommun-ostra-farmvagen-19ba-4726887518509043564,5400.0,,2023.0,11.0,15.0,3.0,1,55.5903883,13.028004
1650000,Sandegårdsgatan 24A,Lägenhet,"Limhamn, Malmö kommun",2020-08-19,,,27049.0,1795000.0,-145 000 kr (-8 %),Lägenhet,Bostadsrätt,2 rum,61 m²,1.0,,1961,3846.0,https://www.hemnet.se/salda/lagenhet-2rum-limhamn-malmo-kommun-sandegardsgatan-24a-1234213,2760.0,,2020.0,8.0,19.0,,0,55.5805121,12.924457
1180000,Kronetorpsgatan 72C,Lägenhet,"Segevång, Malmö kommun",2021-07-23,Vincent Haghighi,https://www.hemnet.se/maklare/erik-olsson-fastighetsformedling-435894/vincent-haghighi-7378,20171.0,995000.0,+185 000 kr (+19 %),Lägenhet,Bostadsrätt,2 rum,"58,5 m²",1.0,"1 av 3, hiss finns ej",1961,3699.0,https://www.hemnet.se/salda/lagenhet-2rum-segevang-malmo-kommun-kronetorpsgatan-72c-1427549,5880.0,,2021.0,7.0,23.0,1.0,1,55.6162965,13.0550276
1960000,Älggatan 18 A,Lägenhet,"Limhamn, Malmö kommun",2022-01-18,Hava Shahgiriiva,https://www.hemnet.se/maklare/croisette-malmo-slottsstaden-1091/hava-shahgiriiva-19417,35000.0,1795000.0,+165 000 kr (+9 %),Lägenhet,Bostadsrätt,2 rum,56 m²,1.0,"1 av 3, hiss finns ej",1947,3428.0,https://www.hemnet.se/salda/lagenhet-2rum-limhamn-malmo-kommun-alggatan-18-a-3419473679778489803,,,2022.0,1.0,18.0,1.0,1,55.5856713,12.9427154
1600000,Annebergsgatan 3B,Lägenhet,"Borgmästaregården, Malmö kommun",2022-08-15,Vincent Haghighi,https://www.hemnet.se/maklare/erik-olsson-fastighetsformedling-435894/vincent-haghighi-7378,27119.0,1595000.0,+5 000 kr (±0 %),Lägenhet,Bostadsrätt,2 rum,59 m²,1.0,"2 av 3, hiss finns ej",1964,3538.0,https://www.hemnet.se/salda/lagenhet-2rum-borgmastaregarden-malmo-kommun-annebergsgatan-3b-2996517613767879181,2280.0,,2022.0,8.0,15.0,2.0,1,55.5848776,12.9947726
2050000,Sufflörgatan 3,Lägenhet,"Lindeborg, Malmö kommun",2023-06-03,Nour Khalil,https://www.hemnet.se/maklare/mohv-hyllie-725851/nour-khalil-21954,21809.0,1995000.0,+55 000 kr (+3 %),Lägenhet,Bostadsrätt,4 rum,94 m²,1.0,"1 av 9, hiss finns",1971,4900.0,https://www.hemnet.se/salda/lagenhet-4rum-lindeborg-malmo-kommun-sufflorgatan-3-1829068283913739597,,,2023.0,6.0,3.0,1.0,1,55.5658487,12.9890682
3500000,Slussgatan 11,Lägenhet,"Slussen, Malmö kommun",2021-09-28,Ajdin Fatic,https://www.hemnet.se/maklare/fastighetsbyran-malmo-169/ajdin-fatic-16369,35000.0,2895000.0,+605 000 kr (+21 %),Lägenhet,Bostadsrätt,4 rum,100 m²,,"3 av 7, hiss finns",1984,5537.0,https://www.hemnet.se/salda/lagenhet-4rum-slussen-malmo-kommun-slussgatan-11-1466739,11940.0,,2021.0,9.0,28.0,3.0,1,55.6084108,13.0169583
1630000,Arkitektgatan 47,Lägenhet,"Södertorp, Malmö kommun",2018-11-16,,,18523.0,1675000.0,-45 000 kr (-3 %),Lägenhet,Bostadsrätt,3 rum,88 m²,,,1968,4937.0,https://www.hemnet.se/salda/lagenhet-3rum-sodertorp-malmo-kommun-arkitektgatan-47-912839,,,2018.0,11.0,16.0,,0,55.5791022,12.9932322
1695000,Älggatan 47C,Lägenhet,"Limhamn, Malmö kommun",2022-01-21,Johan Dahlgren,https://www.hemnet.se/maklare/croisette-malmo-vastra-hamnen-12766/johan-dahlgren-465,44605.0,1695000.0,0 kr (±0 %),Lägenhet,Bostadsrätt,2 rum,38 m²,0.0,"3 av 3, hiss finns ej",1953,3171.0,https://www.hemnet.se/salda/lagenhet-2rum-limhamn-malmo-kommun-alggatan-47c-5940787411089575941,,,2022.0,1.0,21.0,3.0,1,55.5837897,12.9411545
1485000,Blekingsborgsgatan 9,Lägenhet,"Blekingsborg, Malmö kommun",2021-09-01,Mikias Yonas,https://www.hemnet.se/maklare/croisette-malmo-slottsstaden-1091/mikias-yonas-15256,23760.0,1295000.0,+190 000 kr (+15 %),Lägenhet,Bostadsrätt,3 rum,"62,5 m²",1.0,"3 av 4, hiss finns ej",1957,4374.0,https://www.hemnet.se/salda/lagenhet-3rum-blekingsborg-malmo-kommun-blekingsborgsgatan-9-1448281,,,2021.0,9.0,1.0,3.0,1,55.5771785,13.003139
2325000,Roslins väg 8,Lägenhet,"Ribersborg / Slottsstaden, Malmö kommun",2014-09-03,Peter Starck,https://www.hemnet.se/maklare/bulow-lind-fastighetsformedling-28267/peter-starck-2082,22794.0,2200000.0,+125 000 kr (+6 %),Lägenhet,Bostadsrätt,4 rum,102 m²,,,1938,5624.0,https://www.hemnet.se/salda/lagenhet-4rum-ribersborg-slottsstaden-malmo-kommun-roslins-vag-8-240406,4800.0,,2014.0,9.0,3.0,,0,55.6009051,12.978743
1300000,Höstgatan 35a,Lägenhet,"Värnhem, Malmö kommun",2020-01-13,,,21667.0,1495000.0,-195 000 kr (-13 %),Lägenhet,Bostadsrätt,"2,5 rum",60 m²,,,1926,4622.0,"https://www.hemnet.se/salda/lagenhet-2,5rum-varnhem-malmo-kommun-hostgatan-35a-1126675",,,2020.0,1.0,13.0,,0,55.6064961,13.0276802
960000,Storabackegatan 17 C,Lägenhet,"Limhamn, Malmö kommun",2018-10-19,,,26446.0,975000.0,-15 000 kr (-2 %),Lägenhet,Bostadsrätt,"1,5 rum","36,3 m²",,,1954,2479.0,"https://www.hemnet.se/salda/lagenhet-1,5rum-limhamn-malmo-kommun-storabackegatan-17-c-900032",3840.0,,2018.0,10.0,19.0,,0,55.5817503,12.942163
1445000,Hyllie vattenparksgata 46,Lägenhet,"Hyllie, Malmö kommun",2023-03-11,Sharon Ma,https://www.hemnet.se/maklare/croisette-hyllie-708891/sharon-ma-18405,42500.0,1495000.0,-50 000 kr (-3 %),Lägenhet,Bostadsrätt,1 rum,34 m²,1.0,"3 av 6, hiss finns",2018,2354.0,https://www.hemnet.se/salda/lagenhet-1rum-hyllie-malmo-kommun-hyllie-vattenparksgata-46-3576537717494460726,,,2023.0,3.0,11.0,3.0,1,55.5624337,12.9822589
1810000,Karlskronaplan 9,Lägenhet,"Västra Sorgenfri, Malmö kommun",2020-07-31,Johan Berglund,https://www.hemnet.se/maklare/husmanhagberg-malmo-4545/johan-berglund-2105,36200.0,1495000.0,+315 000 kr (+21 %),Lägenhet,Bostadsrätt,2 rum,50 m²,1.0,,1936,3447.0,https://www.hemnet.se/salda/lagenhet-2rum-vastra-sorgenfri-malmo-kommun-karlskronaplan-9-1225809,,,2020.0,7.0,31.0,,0,55.5936841,13.0192012
2125000,Östra kristinelundsvägen 8B,Lägenhet,"Slottsstaden, Malmö kommun",2024-01-25,Safeer Samawi,https://www.hemnet.se/maklare/croisette-malmo-slottsstaden-1091/safeer-samawi-19857,35417.0,1995000.0,+130 000 kr (+7 %),Lägenhet,Bostadsrätt,2 rum,60 m²,1.0,"2 av 4, hiss finns ej",1948,3763.0,https://www.hemnet.se/salda/lagenhet-2rum-slottsstaden-malmo-kommun-ostra-kristinelundsvagen-8b-3272413120119645306,,,2024.0,1.0,25.0,2.0,1,55.5966534,12.9795697
900000,Serenadgatan 28,Lägenhet,"Högaholm, Malmö kommun",2020-08-26,Martina Ahlberg,https://www.hemnet.se/maklare/fastighetsbyran-malmo-169/martina-ahlberg-16952,14063.0,850000.0,+50 000 kr (+6 %),Lägenhet,Bostadsrätt,2 rum,64 m²,1.0,"2 av 17, hiss finns",1972,4279.0,https://www.hemnet.se/salda/lagenhet-2rum-hogaholm-malmo-kommun-serenadgatan-28-1238907,,,2020.0,8.0,26.0,2.0,1,55.56114345,13.006989097410425
2260000,Ystadsgatan 12,Lägenhet,"Möllevången, Malmö kommun",2022-11-14,Sara Persson,https://www.hemnet.se/maklare/bjurfors-malmo-city-1806/sara-persson-8993,37667.0,2395000.0,-135 000 kr (-6 %),Lägenhet,Bostadsrätt,2 rum,60 m²,0.0,"4 av 5, hiss finns",1930,3439.0,https://www.hemnet.se/salda/lagenhet-2rum-mollevangen-malmo-kommun-ystadsgatan-12-7347027112275831675,,,2022.0,11.0,14.0,4.0,1,55.5915125,13.007001
1750000,Konsultgatan 5,Lägenhet,"Södertorp, Malmö kommun",2022-10-07,Nina  Hjelm,https://www.hemnet.se/maklare/fastighetsbyran-malmo-169/nina-hjelm-15172,27778.0,1695000.0,+55 000 kr (+3 %),Lägenhet,Bostadsrätt,2 rum,63 m²,1.0,"5 av 8, hiss finns",,3840.0,https://www.hemnet.se/salda/lagenhet-2rum-sodertorp-malmo-kommun-konsultgatan-5-5962311629918481116,,,2022.0,10.0,7.0,5.0,1,55.5759178,12.9909141
2690000,Stora Högestensgatan 2,Lägenhet,"Limhamn, Malmö kommun",2020-06-15,,,37517.0,2695000.0,-5 000 kr (±0 %),Lägenhet,Bostadsrätt,3 rum,"71,7 m²",,"3 av 5, hiss finns",2016,3773.0,https://www.hemnet.se/salda/lagenhet-3rum-limhamn-malmo-kommun-stora-hogestensgatan-2-1204460,13243.0,,2020.0,6.0,15.0,3.0,1,55.572404,12.9357223
2150000,Kamrergatan 9,Lägenhet,"S:t Knut, Malmö kommun",2019-05-13,Kenan Hasanoglu,https://www.hemnet.se/maklare/fastighetsbyran-malmo-169/kenan-hasanoglu-10334,29054.0,2295000.0,-145 000 kr (-6 %),Lägenhet,Bostadsrätt,3 rum,74 m²,,,1939,4164.0,https://www.hemnet.se/salda/lagenhet-3rum-s-t-knut-malmo-kommun-kamrergatan-9-1005126,7514.0,,2019.0,5.0,13.0,,0,55.5987771,13.0129619
1350000,Västra Skrävlingevägen 137,Lägenhet,"Gula Höja, Malmö kommun",2021-11-26,Cassandra Bülow,https://www.hemnet.se/maklare/bulow-lind-fastighetsformedling-28267/cassandra-bulow-19273,22881.0,1150000.0,+200 000 kr (+17 %),Lägenhet,Bostadsrätt,2 rum,59 m²,1.0,"1 av 3, hiss finns ej",1970,3616.0,https://www.hemnet.se/salda/lagenhet-2rum-gula-hoja-malmo-kommun-vastra-skravlingevagen-137-1504019,4800.0,1.0,2021.0,11.0,26.0,1.0,1,55.5830249,13.0587093
1055000,Fågelbacksgatan 8D,Lägenhet,"Fågelbacken, Malmö kommun",2014-07-20,,,31970.0,1075000.0,-20 000 kr (-2 %),Lägenhet,Bostadsrätt,1 rum,33 m²,,,1938,1719.0,https://www.hemnet.se/salda/lagenhet-1rum-fagelbacken-malmo-kommun-fagelbacksgatan-8d-225154,3600.0,,2014.0,7.0,20.0,,0,55.5963508,12.9834207
2125000,Edward Lindahlsgatan 12C,Lägenhet,"Fågelbacken / Hästhagen, Malmö kommun",2022-02-25,,,42500.0,2195000.0,-70 000 kr (-3 %),Lägenhet,Bostadsrätt,2 rum,50 m²,,"1 av 4, hiss finns ej",,2231.0,https://www.hemnet.se/salda/lagenhet-2rum-fagelbacken-hasthagen-malmo-kommun-edward-lindahlsgatan-12c-5663970316938797794,,,2022.0,2.0,25.0,1.0,1,55.5952281,12.9865808
1700000,Rådmansgatan 15 H,Lägenhet,"Rådmansvången, Malmö kommun",2020-04-16,Therese Franzén,https://www.hemnet.se/maklare/erik-olsson-fastighetsformedling-732631/therese-franzen-10143,29310.0,1795000.0,-95 000 kr (-5 %),Lägenhet,Bostadsrätt,2 rum,58 m²,1.0,,1945,3988.0,https://www.hemnet.se/salda/lagenhet-2rum-radmansvangen-malmo-kommun-radmansgatan-15-h-1170306,3620.0,,2020.0,4.0,16.0,,0,55.594693,13.0003044
1500000,Skrivaregatan 38,Lägenhet,"Hyllie, Malmö kommun",2023-03-10,Therese Lagerfelt,https://www.hemnet.se/maklare/fastighetsbyran-malmo-169/therese-lagerfelt-15913,37500.0,1650000.0,-150 000 kr (-9 %),Lägenhet,Bostadsrätt,2 rum,40 m²,,"1 av 7, hiss finns",2022,3708.0,https://www.hemnet.se/salda/lagenhet-2rum-hyllie-malmo-kommun-skrivaregatan-38-4987622515012546153,6764.0,1.0,2023.0,3.0,10.0,1.0,1,55.5594819,12.9722273
1195000,Baskemöllegatan 4 A,Lägenhet,"Sorgenfri, Malmö kommun",2020-06-29,Agneta Chong,https://www.hemnet.se/maklare/erik-olsson-fastighetsformedling-435894/agneta-chong-9177,19590.0,1195000.0,0 kr (±0 %),Lägenhet,Bostadsrätt,2 rum,61 m²,1.0,,1947,3477.0,https://www.hemnet.se/salda/lagenhet-2rum-sorgenfri-malmo-kommun-baskemollegatan-4-a-1211980,4860.0,,2020.0,6.0,29.0,,0,55.5906836,13.0260575
4675000,Limhamnsvägen 6A,Lägenhet,"Ribersborg, Malmö kommun",2020-12-17,,,74681.0,4695000.0,-20 000 kr (±0 %),Lägenhet,Bostadsrätt,2 rum,"62,6 m²",1.0,"9 av 9, hiss finns",1943,2767.0,https://www.hemnet.se/salda/lagenhet-2rum-ribersborg-malmo-kommun-limhamnsvagen-6a-1307340,,1.0,2020.0,12.0,17.0,9.0,1,55.5859992,12.9294591
1300000,Föreningsgatan 70,Lägenhet,"Värnhem, Malmö kommun",2023-03-09,Jack Ovallius,https://www.hemnet.se/maklare/fastighetsbyran-malmo-169/jack-ovallius-13886,48148.0,1295000.0,+5 000 kr (±0 %),Lägenhet,Bostadsrätt,1 rum,27 m²,,"4 av 5, hiss finns",,2037.0,https://www.hemnet.se/salda/lagenhet-1rum-varnhem-malmo-kommun-foreningsgatan-70-394910791730754301,,,2023.0,3.0,9.0,4.0,1,55.5967116,13.0014121
1410000,Mastgränd 7,Lägenhet,"Västra Hamnen, Malmö kommun",2017-09-23,,,42090.0,1450000.0,-40 000 kr (-3 %),Lägenhet,Bostadsrätt,1 rum,"33,5 m²",,,2017,2297.0,https://www.hemnet.se/salda/lagenhet-1rum-vastra-hamnen-malmo-kommun-mastgrand-7-735333,3600.0,,2017.0,9.0,23.0,,0,55.61227605,12.980190805530807
2100000,Köpenhamnsvägen 47A,Lägenhet,"Slottsstaden, Malmö kommun",2024-02-07,Karl Fransson,https://www.hemnet.se/maklare/bjurfors-malmo-vaster-12366/karl-fransson-19714,36522.0,1995000.0,+105 000 kr (+5 %),Lägenhet,Bostadsrätt,2 rum,"57,5 m²",1.0,"2 av 7, hiss finns",1952,4812.0,https://www.hemnet.se/salda/lagenhet-2rum-slottsstaden-malmo-kommun-kopenhamnsvagen-47a-3549041853831293243,,,2024.0,2.0,7.0,2.0,1,55.5941398,12.9689792
1350000,Örsholmsgången 2A,Lägenhet,"Pildammarna / Kronborg, Malmö kommun",2023-11-27,Ida Rohman,https://www.hemnet.se/maklare/erik-olsson-fastighetsformedling-720071/ida-rohman-23264,37500.0,1395000.0,-45 000 kr (-3 %),Lägenhet,Bostadsrätt,1 rum,36 m²,1.0,"3 av 4, hiss finns ej",1946,2969.0,https://www.hemnet.se/salda/lagenhet-1rum-pildammarna-kronborg-malmo-kommun-orsholmsgangen-2a-205954802719576377,,,2023.0,11.0,27.0,3.0,1,55.5944494,12.9858329
1770000,Regementsgatan 56 C,Lägenhet,"Slottsstaden, Malmö kommun",2016-02-26,,,28457.0,1595000.0,+175 000 kr (+11 %),Lägenhet,Bostadsrätt,3 rum,"62,2 m²",,,1939,3515.0,https://www.hemnet.se/salda/lagenhet-3rum-slottsstaden-malmo-kommun-regementsgatan-56-c-481653,5796.0,,2016.0,2.0,26.0,,0,55.5978174,12.9712395
1360000,Ängelholmsgatan 10 C,Lägenhet,"Möllevången/City, Malmö kommun",2014-03-06,,,21935.0,1295000.0,+65 000 kr (+5 %),Lägenhet,Bostadsrätt,2 rum,62 m²,,,1905,4248.0,https://www.hemnet.se/salda/lagenhet-2rum-mollevangen-city-malmo-kommun-angelholmsgatan-10-c-159618,4200.0,,2014.0,3.0,6.0,,0,55.5930536,13.0091703
2630000,Köpenhamnsvägen 11A,Lägenhet,"Slottsstaden, Malmö kommun",2019-08-19,Malin Ekvall Jangvert,https://www.hemnet.se/maklare/bjurfors-limhamn-1807/malin-ekvall-jangvert-12871,31497.0,2695000.0,-65 000 kr (-2 %),Lägenhet,Bostadsrätt,4 rum,"83,5 m²",,,1953,4128.0,https://www.hemnet.se/salda/lagenhet-4rum-slottsstaden-malmo-kommun-kopenhamnsvagen-11a-1057698,,,2019.0,8.0,19.0,,0,55.5942129,12.9656625
1745000,Ribevägen 8D,Lägenhet,"Dammfri, Malmö kommun",2020-09-09,Max Lexert,https://www.hemnet.se/maklare/erik-olsson-fastighetsformedling-720071/max-lexert-13499,31498.0,1745000.0,0 kr (±0 %),Lägenhet,Bostadsrätt,2 rum,"55,4 m²",1.0,"1 av 3, hiss finns ej",1947,3198.0,https://www.hemnet.se/salda/lagenhet-2rum-dammfri-malmo-kommun-ribevagen-8d-1247561,4860.0,,2020.0,9.0,9.0,1.0,1,55.5909983,12.9844609
2715000,Davidshallstorg 3,Lägenhet,"Davidshallstorg, Malmö kommun",2015-08-11,,,37708.0,2595000.0,+120 000 kr (+5 %),Lägenhet,Bostadsrätt,3 rum,72 m²,,,1931,3109.0,https://www.hemnet.se/salda/lagenhet-3rum-davidshallstorg-malmo-kommun-davidshallstorg-3-441878,3692.0,,2015.0,8.0,11.0,,0,55.5993568,12.99779655
1555000,Balladgatan 45,Lägenhet,"Högaholm, Malmö kommun",2021-12-02,Emir Salkic,https://www.hemnet.se/maklare/croisette-malmo-slottsstaden-1091/emir-salkic-1545,19080.0,1495000.0,+60 000 kr (+4 %),Lägenhet,Bostadsrätt,3 rum,"81,5 m²",1.0,"6 av 8, hiss finns",1971,3872.0,https://www.hemnet.se/salda/lagenhet-3rum-hogaholm-malmo-kommun-balladgatan-45-1507068,,,2021.0,12.0,2.0,6.0,1,55.5616487,13.0121841
675000,Karolingatan 6,Lägenhet,"Vita Höja, Malmö kommun",2014-02-06,,,10385.0,695000.0,-20 000 kr (-3 %),Lägenhet,Bostadsrätt,2 rum,65 m²,,,1968,3092.0,https://www.hemnet.se/salda/lagenhet-2rum-vita-hoja-malmo-kommun-karolingatan-6-149059,,,2014.0,2.0,6.0,,0,55.5816528,13.0642911
1900000,Ellstorpsgatan 1B,Lägenhet,"Ellstorp, Malmö kommun",2022-06-02,Ola Petersson,https://www.hemnet.se/maklare/bjurfors-malmo-oster-2048/ola-petersson-13621,35185.0,1695000.0,+205 000 kr (+12 %),Lägenhet,Bostadsrätt,2 rum,54 m²,1.0,"6 av 6, hiss finns",1939,2873.0,https://www.hemnet.se/salda/lagenhet-2rum-ellstorp-malmo-kommun-ellstorpsgatan-1b-8100778105168817561,,,2022.0,6.0,2.0,6.0,1,55.6035308,13.0300321
2495000,Östra Kristinelundsvägen 27D,Lägenhet,"Slottsstaden, Malmö kommun",2019-10-06,Maja Ristic,https://www.hemnet.se/maklare/erik-olsson-fastighetsformedling-720071/maja-ristic-14042,32403.0,2495000.0,0 kr (±0 %),Lägenhet,Bostadsrätt,3 rum,77 m²,,,1938,4104.0,https://www.hemnet.se/salda/lagenhet-3rum-slottsstaden-malmo-kommun-ostra-kristinelundsvagen-27d-1087617,6000.0,,2019.0,10.0,6.0,,0,55.5961756,12.9756124
3065000,Kronolotsgatan 2,Lägenhet,"Ön, Malmö kommun",2018-11-18,,,32606.0,3095000.0,-30 000 kr (-1 %),Lägenhet,Bostadsrätt,4 rum,94 m²,,,2012,5254.0,https://www.hemnet.se/salda/lagenhet-4rum-on-malmo-kommun-kronolotsgatan-2-929507,6600.0,,2018.0,11.0,18.0,,0,55.590716,12.9235785
1425000,Sofierogatan 3C,Lägenhet,"Ellstorp, Malmö kommun",2020-01-15,,,24783.0,1375000.0,+50 000 kr (+4 %),Lägenhet,Bostadsrätt,2 rum,"57,5 m²",1.0,,1945,3268.0,https://www.hemnet.se/salda/lagenhet-2rum-ellstorp-malmo-kommun-sofierogatan-3c-1127660,,,2020.0,1.0,15.0,,0,55.6042361,13.0322452
1400000,Dansörgatan 18,Lägenhet,"Lindeborg, Malmö kommun",2020-10-18,Klaus Lohmeier,https://www.hemnet.se/maklare/erik-olsson-fastighetsformedling-727551/klaus-lohmeier-16824,22581.0,1295000.0,+105 000 kr (+8 %),Lägenhet,Bostadsrätt,2 rum,62 m²,1.0,"3 av 8, hiss finns",1972,3509.0,https://www.hemnet.se/salda/lagenhet-2rum-lindeborg-malmo-kommun-dansorgatan-18-1272589,3620.0,,2020.0,10.0,18.0,3.0,1,55.5603978,12.9882977
2050000,Limhamnsgårdens Allé 38,Lägenhet,"Limhamn, Malmö kommun",2019-07-15,,,37273.0,1995000.0,+55 000 kr (+3 %),Lägenhet,Bostadsrätt,2 rum,55 m²,,,2011,2723.0,https://www.hemnet.se/salda/lagenhet-2rum-limhamn-malmo-kommun-limhamnsgardens-alle-38-1045007,,,2019.0,7.0,15.0,,0,55.571950900000004,12.93011775
1200000,Vårgatan 3C,Lägenhet,"Östervärn, Malmö kommun",2020-05-04,,,31579.0,1175000.0,+25 000 kr (+2 %),Lägenhet,Bostadsrätt,2 rum,38 m²,0.0,,1936,2516.0,https://www.hemnet.se/salda/lagenhet-2rum-ostervarn-malmo-kommun-vargatan-3c-1179990,,,2020.0,5.0,4.0,,0,55.6058756,13.0268242
3500000,Kalkstensvägen 11,Lägenhet,"Limhamn, Malmö kommun",2017-02-03,Maria Tillgren,https://www.hemnet.se/maklare/fastighetsbyran-malmo-169/maria-tillgren-1404,53030.0,3500000.0,0 kr (±0 %),Lägenhet,Bostadsrätt,2 rum,66 m²,,,2009,1270.0,https://www.hemnet.se/salda/lagenhet-2rum-limhamn-malmo-kommun-kalkstensvagen-11-628940,,,2017.0,2.0,3.0,,0,55.5730448,12.9250458
2325000,Solhöjdsgatan 15,Lägenhet,"Varvsstaden, Malmö kommun",2022-07-16,Henrik Feuk,https://www.hemnet.se/maklare/husmanhagberg-malmo-4545/henrik-feuk-19708,59615.0,2395000.0,-70 000 kr (-3 %),Lägenhet,Bostadsrätt,2 rum,39 m²,1.0,"2 av 7, hiss finns",2022,2707.0,https://www.hemnet.se/salda/lagenhet-2rum-varvsstaden-malmo-kommun-solhojdsgatan-15-3618506328527980843,,,2022.0,7.0,16.0,2.0,1,55.6090212,12.9845453
3000000,Glasbrukskajen 2B,Lägenhet,"Limhamns Sjöstad, Malmö kommun",2022-03-31,Malin Ekvall Jangvert,https://www.hemnet.se/maklare/bjurfors-limhamn-1807/malin-ekvall-jangvert-12871,48000.0,2795000.0,+205 000 kr (+7 %),Lägenhet,Bostadsrätt,2 rum,"62,5 m²",1.0,"4 av 5, hiss finns",2016,3436.0,https://www.hemnet.se/salda/lagenhet-2rum-limhamns-sjostad-malmo-kommun-glasbrukskajen-2b-1856007830505526301,,,2022.0,3.0,31.0,4.0,1,55.5938845,12.9317516
1950000,Kilian Zollsgatan 1A,Lägenhet,"Ribersborg, Malmö kommun",2016-06-07,,,34821.0,1895000.0,+55 000 kr (+3 %),Lägenhet,Bostadsrätt,2 rum,56 m²,,,1938,3143.0,https://www.hemnet.se/salda/lagenhet-2rum-ribersborg-malmo-kommun-kilian-zollsgatan-1a-528378,2400.0,,2016.0,6.0,7.0,,0,55.6016543,12.980564
1600000,Slöjdgatan 5A,Lägenhet,"Möllevången, Malmö kommun",2019-09-28,Lisa Ivarsson,https://www.hemnet.se/maklare/croisette-malmo-slottsstaden-1091/lisa-ivarsson-14256,32653.0,1595000.0,+5 000 kr (±0 %),Lägenhet,Bostadsrätt,2 rum,49 m²,,,1909,3316.0,https://www.hemnet.se/salda/lagenhet-2rum-mollevangen-malmo-kommun-slojdgatan-5a-1083348,,,2019.0,9.0,28.0,,0,55.5909358,13.0061849
1000000,Vitemöllegatan 11 A,Lägenhet,"Annelund, Malmö kommun",2017-07-12,[email protected],"https://www.hemnet.se/maklare/hemverket-ab-36511/info-hemverket,se-144",28571.0,750000.0,+250 000 kr (+33 %),Lägenhet,Bostadsrätt,1 rum,35 m²,,,,2640.0,https://www.hemnet.se/salda/lagenhet-1rum-annelund-malmo-kommun-vitemollegatan-11-a-703470,,,2017.0,7.0,12.0,,0,55.5894781,13.0257103
2500000,Regementsgatan 27B,Lägenhet,"Ribersborg, Malmö kommun",2023-02-13,Alexander Gustafsson,https://www.hemnet.se/maklare/lansforsakringar-fastighetsformedling-malmo-39311/alexander-gustafsson-16281,41667.0,2695000.0,-195 000 kr (-7 %),Lägenhet,Bostadsrätt,2 rum,60 m²,1.0,"3 av 5, hiss finns",1944,4001.0,https://www.hemnet.se/salda/lagenhet-2rum-ribersborg-malmo-kommun-regementsgatan-27b-9107652380594862633,,,2023.0,2.0,13.0,3.0,1,55.5978174,12.9712395
2100000,Lilla Varvsgatan 47A,Lägenhet,"Dockan, Malmö kommun",2021-11-19,Johan Dahlgren,https://www.hemnet.se/maklare/croisette-malmo-vastra-hamnen-12766/johan-dahlgren-465,39623.0,2095000.0,+5 000 kr (±0 %),Lägenhet,Bostadsrätt,2 rum,53 m²,0.0,"1 av 7, hiss finns",2019,3035.0,https://www.hemnet.se/salda/lagenhet-2rum-dockan-malmo-kommun-lilla-varvsgatan-47a-1500248,,,2021.0,11.0,19.0,1.0,1,55.6144582,12.9864738
4590000,Krankajen 2,Lägenhet,"Dockan, Malmö kommun",2018-01-16,Michaela Thulin,https://www.hemnet.se/maklare/croisette-hollviken-63091/michaela-thulin-1556,45446.0,4595000.0,-5 000 kr (±0 %),Lägenhet,Bostadsrätt,3 rum,101 m²,,,2004,5743.0,https://www.hemnet.se/salda/lagenhet-3rum-dockan-malmo-kommun-krankajen-2-779236,,,2018.0,1.0,16.0,,0,55.6154864,12.9902665
1850000,Mastgränd 7A,Lägenhet,"Västra Hamnen, Malmö kommun",2020-04-09,,,52113.0,1750000.0,+100 000 kr (+6 %),Lägenhet,Bostadsrätt,1 rum,"35,5 m²",1.0,,2017,2550.0,https://www.hemnet.se/salda/lagenhet-1rum-vastra-hamnen-malmo-kommun-mastgrand-7a-1168325,,,2020.0,4.0,9.0,,0,55.6120207,12.9804006
1630000,Konsultgatan 5,Lägenhet,"Södertorp, Malmö kommun",2022-11-14,Annika Jernberg,https://www.hemnet.se/maklare/fastighetsbyran-hollviken-170/annika-jernberg-18855,19521.0,1550000.0,+80 000 kr (+5 %),Lägenhet,Bostadsrätt,3 rum,"83,5 m²",1.0,"6 av 8, hiss finns",1972,4841.0,https://www.hemnet.se/salda/lagenhet-3rum-sodertorp-malmo-kommun-konsultgatan-5-5801265368835929479,,,2022.0,11.0,14.0,6.0,1,55.5759178,12.9909141
1350000,Kilian Zollsgatan 1B,Lägenhet,"Ribersborg, Malmö kommun",2016-04-11,,,35526.0,1350000.0,0 kr (±0 %),Lägenhet,Bostadsrätt,1 rum,38 m²,,,1938,2293.0,https://www.hemnet.se/salda/lagenhet-1rum-ribersborg-malmo-kommun-kilian-zollsgatan-1b-499536,5000.0,,2016.0,4.0,11.0,,0,55.6016543,12.980564
1620000,Södervärnsgatan 3C,Lägenhet,"Södervärn, Malmö kommun",2020-03-25,,,26341.0,1795000.0,-175 000 kr (-10 %),Lägenhet,Bostadsrätt,2 rum,"61,5 m²",1.0,"3 av 9, hiss finns",1964,3329.0,https://www.hemnet.se/salda/lagenhet-2rum-sodervarn-malmo-kommun-sodervarnsgatan-3c-1161730,,,2020.0,3.0,25.0,3.0,1,55.5887206,13.0119856
3400000,Skomakaregatan 10A,Lägenhet,"Gamla Väster, Malmö kommun",2018-06-06,Malin Ekvall Jangvert,https://www.hemnet.se/maklare/bjurfors-limhamn-1807/malin-ekvall-jangvert-12871,57627.0,3495000.0,-95 000 kr (-3 %),Lägenhet,Bostadsrätt,2 rum,59 m²,,,2006-2008,4190.0,https://www.hemnet.se/salda/lagenhet-2rum-gamla-vaster-malmo-kommun-skomakaregatan-10a-839519,,,2018.0,6.0,6.0,,0,55.6046985,13.0003511
1275000,Torekovsgatan 22A,Lägenhet,"Östra Sorgenfri, Malmö kommun",2018-10-12,Malin Wallin,https://www.hemnet.se/maklare/fastighetsbyran-malmo-169/malin-wallin-13595,25500.0,1195000.0,+80 000 kr (+7 %),Lägenhet,Bostadsrätt,2 rum,50 m²,,,1940,3316.0,https://www.hemnet.se/salda/lagenhet-2rum-ostra-sorgenfri-malmo-kommun-torekovsgatan-22a-896168,,,2018.0,10.0,12.0,,0,55.5928561,13.0239507
1195000,Värnhemsgatan 10,Lägenhet,"Östervärn, Malmö kommun",2022-04-27,Bella Forsberg,https://www.hemnet.se/maklare/lansforsakringar-fastighetsformedling-malmo-39311/bella-forsberg-19448,34143.0,1195000.0,0 kr (±0 %),Lägenhet,Bostadsrätt,2 rum,35 m²,0.0,"4 av 4, hiss finns ej",,2492.0,https://www.hemnet.se/salda/lagenhet-2rum-ostervarn-malmo-kommun-varnhemsgatan-10-7333536332437840341,3000.0,,2022.0,4.0,27.0,4.0,1,55.604901350000006,13.027387314236666
1350000,Skvadronsgatan 20 A,Lägenhet,"Slottsstaden, Malmö kommun",2019-10-03,Malin Thelander,https://www.hemnet.se/maklare/erik-olsson-fastighetsformedling-435894/malin-thelander-6179,39706.0,1395000.0,-45 000 kr (-3 %),Lägenhet,Bostadsrätt,1 rum,34 m²,,,1944,2500.0,https://www.hemnet.se/salda/lagenhet-1rum-slottsstaden-malmo-kommun-skvadronsgatan-20-a-1086419,3620.0,,2019.0,10.0,3.0,,0,55.597185,12.9797929
1750000,Mariedalsvägen 56C,Lägenhet,"Pildammarna, Malmö kommun",2022-04-12,Linnéa Lindberg,https://www.hemnet.se/maklare/fastighetsbyran-malmo-169/linnea-lindberg-17954,27778.0,1695000.0,+55 000 kr (+3 %),Lägenhet,Bostadsrätt,2 rum,63 m²,1.0,"1 av 4, hiss finns",1949,4494.0,https://www.hemnet.se/salda/lagenhet-2rum-pildammarna-malmo-kommun-mariedalsvagen-56c-1955156658032205810,,,2022.0,4.0,12.0,1.0,1,55.5927143,12.984025
2700000,Helmfeltsgatan 3,Lägenhet,"Stadsteatern, Malmö kommun",2014-03-28,Michaela Thulin,https://www.hemnet.se/maklare/croisette-hollviken-63091/michaela-thulin-1556,35065.0,2495000.0,+205 000 kr (+8 %),Lägenhet,Annat,"2,5 rum",77 m²,,,1926,3530.0,"https://www.hemnet.se/salda/lagenhet-2,5rum-stadsteatern-malmo-kommun-helmfeltsgatan-3-168832",6395.0,,2014.0,3.0,28.0,,0,55.59790625,12.99527833869067
865000,Botildenborgsvägen 11B,Lägenhet,"Västra Kattarp, Malmö kommun",2016-07-15,Peter Starck,https://www.hemnet.se/maklare/bulow-lind-fastighetsformedling-28267/peter-starck-2082,12357.0,845000.0,+20 000 kr (+2 %),Lägenhet,Bostadsrätt,3 rum,70 m²,,,1955,4124.0,https://www.hemnet.se/salda/lagenhet-3rum-vastra-kattarp-malmo-kommun-botildenborgsvagen-11b-547095,,,2016.0,7.0,15.0,,0,55.5791621,13.03559
1750000,Södra Förstadsgatan 80E,Lägenhet,"Triangeln, Malmö kommun",2022-11-15,,,44872.0,1750000.0,0 kr (±0 %),Lägenhet,Bostadsrätt,2 rum,39 m²,0.0,"1 av 3, hiss finns ej",1930,2134.0,https://www.hemnet.se/salda/lagenhet-2rum-triangeln-malmo-kommun-sodra-forstadsgatan-80e-6047393417039026216,4320.0,,2022.0,11.0,15.0,1.0,1,55.5892723,13.0056455
2090000,Älggatan 18 A,Lägenhet,"Limhamn, Malmö kommun",2021-06-05,Peter Starck,https://www.hemnet.se/maklare/bulow-lind-fastighetsformedling-28267/peter-starck-2082,37321.0,1795000.0,+295 000 kr (+16 %),Lägenhet,Bostadsrätt,2 rum,56 m²,1.0,,1947,3428.0,https://www.hemnet.se/salda/lagenhet-2rum-limhamn-malmo-kommun-alggatan-18-a-1400794,,,2021.0,6.0,5.0,,0,55.5856713,12.9427154
1950000,Sveagatan 103A,Lägenhet,"Limhamn, Malmö kommun",2023-08-30,Rama Bernin,https://www.hemnet.se/maklare/croisette-malmo-vastra-hamnen-12766/rama-bernin-21858,34211.0,2095000.0,-145 000 kr (-7 %),Lägenhet,Bostadsrätt,2 rum,57 m²,1.0,"3 av 3, hiss finns ej",1950,3834.0,https://www.hemnet.se/salda/lagenhet-2rum-limhamn-malmo-kommun-sveagatan-103a-3953857195554892414,,,2023.0,8.0,30.0,3.0,1,55.5829839,12.9424844
1100000,Kiviksgatan 6 B,Lägenhet,"Sorgenfri, Malmö kommun",2019-10-01,Majlinda Halimi Hugosson,https://www.hemnet.se/maklare/erik-olsson-fastighetsformedling-435894/majlinda-halimi-hugosson-12128,28205.0,1050000.0,+50 000 kr (+5 %),Lägenhet,Bostadsrätt,1 rum,39 m²,,,1945,2429.0,https://www.hemnet.se/salda/lagenhet-1rum-sorgenfri-malmo-kommun-kiviksgatan-6-b-1084931,3620.0,,2019.0,10.0,1.0,,0,55.5921521,13.0247611
1950000,Exercisgatan 3,Lägenhet,"Rörsjöstaden, Malmö kommun",2015-07-16,,,26000.0,1495000.0,+455 000 kr (+30 %),Lägenhet,Annat,2 rum,75 m²,,,1927,2887.0,https://www.hemnet.se/salda/lagenhet-2rum-rorsjostaden-malmo-kommun-exercisgatan-3-386096,,,2015.0,7.0,16.0,,0,55.6063582,13.0146619
2995000,Kolsyregatan 22,Lägenhet,"Limhamns Sjöstad, Malmö kommun",2022-03-28,Kevin Livingstone,https://www.hemnet.se/maklare/erik-olsson-fastighetsformedling-720071/kevin-livingstone-19223,41027.0,2995000.0,0 kr (±0 %),Lägenhet,Bostadsrätt,3 rum,73 m²,1.0,"4 av 5, hiss finns",2019,4045.0,https://www.hemnet.se/salda/lagenhet-3rum-limhamns-sjostad-malmo-kommun-kolsyregatan-22-4020313397999039206,4320.0,,2022.0,3.0,28.0,4.0,1,55.589829249999994,12.93858487384939
1695000,Östra Varvsgatan 5B,Lägenhet,"Dockan, Malmö kommun",2019-05-29,Mathilda Skoglund,https://www.hemnet.se/maklare/bjurfors-malmo-city-1806/mathilda-skoglund-11409,52969.0,1695000.0,0 kr (±0 %),Lägenhet,Bostadsrätt,1 rum,32 m²,,,2018,2232.0,https://www.hemnet.se/salda/lagenhet-1rum-dockan-malmo-kommun-ostra-varvsgatan-5b-1021181,,,2019.0,5.0,29.0,,0,55.6182581,12.982381
2225000,Bomgatan 23B,Lägenhet,"Västra Hamnen, Malmö kommun",2023-04-19,Daniel Karlsson,https://www.hemnet.se/maklare/svensk-fastighetsformedling-malmo-701451/daniel-karlsson-10500,40455.0,2250000.0,-25 000 kr (-1 %),Lägenhet,Bostadsrätt,2 rum,55 m²,,"1 av 6, hiss finns",2020,3351.0,https://www.hemnet.se/salda/lagenhet-2rum-vastra-hamnen-malmo-kommun-bomgatan-23b-6990164500846954917,8400.0,1.0,2023.0,4.0,19.0,1.0,1,55.6127345,12.9805326
1650000,Randersvägen 24 B,Lägenhet,"Dammfri, Malmö kommun",2023-08-25,Simon Falke,https://www.hemnet.se/maklare/maklarhuset-malmo-regementsgatan-25107/simon-falke-16530,27500.0,1695000.0,-45 000 kr (-3 %),Lägenhet,Bostadsrätt,2 rum,60 m²,,"2 av 3, hiss finns ej",1949,4610.0,https://www.hemnet.se/salda/lagenhet-2rum-dammfri-malmo-kommun-randersvagen-24-b-8802728255061736823,3600.0,,2023.0,8.0,25.0,2.0,1,55.5918367,12.9833919
1760000,Östra Kristinelundsvägen 12B,Lägenhet,"Slottsstaden, Malmö kommun",2023-10-08,Ludvig Andersson,https://www.hemnet.se/maklare/skandiamaklarna-malmo-vaster-oster-718231/ludvig-andersson-7262,44000.0,1850000.0,-90 000 kr (-5 %),Lägenhet,Bostadsrätt,2 rum,40 m²,,1 av 4,1943,2928.0,https://www.hemnet.se/salda/lagenhet-2rum-slottsstaden-malmo-kommun-ostra-kristinelundsvagen-12b-3168330242598908571,,,2023.0,10.0,8.0,1.0,0,55.5966534,12.9795697
1735000,Mariedalsvägen 57A,Lägenhet,"Dammfri, Malmö kommun",2020-11-17,Jonas Birgerdahl,https://www.hemnet.se/maklare/croisette-hyllie-708891/jonas-birgerdahl-16620,30174.0,1595000.0,+140 000 kr (+9 %),Lägenhet,Bostadsrätt,2 rum,"57,5 m²",0.0,"1 av 3, hiss finns ej",1949,4099.0,https://www.hemnet.se/salda/lagenhet-2rum-dammfri-malmo-kommun-mariedalsvagen-57a-1290223,,,2020.0,11.0,17.0,1.0,1,55.5916167,12.9833092
2350000,Lilla Varvsgatan 19A,Lägenhet,"Västra Hamnen, Malmö kommun",2020-10-09,,,46078.0,2295000.0,+55 000 kr (+2 %),Lägenhet,Bostadsrätt,2 rum,51 m²,1.0,"3 av 10, hiss finns",2018,2959.0,https://www.hemnet.se/salda/lagenhet-2rum-vastra-hamnen-malmo-kommun-lilla-varvsgatan-19a-1267347,5100.0,,2020.0,10.0,9.0,3.0,1,55.6144582,12.9864738
1200000,Hörbygatan 2,Lägenhet,"Nobeltorget, Malmö kommun",2022-09-08,,,30000.0,1375000.0,-175 000 kr (-13 %),Lägenhet,Bostadsrätt,"1,5 rum",40 m²,0.0,"3 av 4, hiss finns ej",1937,2568.0,"https://www.hemnet.se/salda/lagenhet-1,5rum-nobeltorget-malmo-kommun-horbygatan-2-141527814991264083",,,2022.0,9.0,8.0,3.0,1,55.5893936,13.0180768
1670000,Hyllie kyrkoväg 53A,Lägenhet,"Limhamn, Malmö kommun",2023-12-29,Rami Daadooch,https://www.hemnet.se/maklare/croisette-malmo-vastra-hamnen-12766/rami-daadooch-21926,27154.0,1895000.0,-225 000 kr (-12 %),Lägenhet,Bostadsrätt,2 rum,"61,5 m²",1.0,"3 av 3, hiss finns ej",1956,4074.0,https://www.hemnet.se/salda/lagenhet-2rum-limhamn-malmo-kommun-hyllie-kyrkovag-53a-3061000223156968373,,,2023.0,12.0,29.0,3.0,1,55.5783069,12.9338424
3550000,Västra Varvsgatan 21C,Lägenhet,"Västra Hamnen, Malmö kommun",2023-03-17,Fredrik Leche,https://www.hemnet.se/maklare/bjurfors-malmo-city-1806/fredrik-leche-18338,50000.0,3495000.0,+55 000 kr (+2 %),Lägenhet,Bostadsrätt,3 rum,71 m²,1.0,"3 av 6, hiss finns",2016,4153.0,https://www.hemnet.se/salda/lagenhet-3rum-vastra-hamnen-malmo-kommun-vastra-varvsgatan-21c-6921090515508375931,,,2023.0,3.0,17.0,3.0,1,55.6128087,12.977414
1520000,Norrbäcksgatan 15,Lägenhet,"Kroksbäck, Malmö kommun",2020-01-28,,,17471.0,1495000.0,+25 000 kr (+2 %),Lägenhet,Bostadsrätt,3 rum,87 m²,1.0,,1967,4947.0,https://www.hemnet.se/salda/lagenhet-3rum-kroksback-malmo-kommun-norrbacksgatan-15-1133948,3864.0,,2020.0,1.0,28.0,,0,55.5770382,12.9765442
840000,Södra gulsparvsgatan 42,Lägenhet,"Söderkulla, Malmö kommun",2017-12-08,Oskar Mitsner,https://www.hemnet.se/maklare/erik-olsson-fastighetsformedling-435894/oskar-mitsner-13907,14000.0,795000.0,+45 000 kr (+6 %),Lägenhet,Bostadsrätt,2 rum,60 m²,,,1968,3661.0,https://www.hemnet.se/salda/lagenhet-2rum-soderkulla-malmo-kommun-sodra-gulsparvsgatan-42-770396,2970.0,,2017.0,12.0,8.0,,0,55.5673933,13.0054672
649000,Botildenborgsvägen 13 A,Lägenhet,"Västra Kattarp, Malmö kommun",2018-11-21,Annika Rosenberg,https://www.hemnet.se/maklare/bostadsagenten-382/annika-rosenberg-6760,10468.0,815000.0,-166 000 kr (-20 %),Lägenhet,Bostadsrätt,"2,5 rum",62 m²,,,1955,3570.0,"https://www.hemnet.se/salda/lagenhet-2,5rum-vastra-kattarp-malmo-kommun-botildenborgsvagen-13-a-914253",3600.0,,2018.0,11.0,21.0,,0,55.5791249,13.0360916
1400000,Hyllie Boulevard 6B,Lägenhet,"Hyllie, Malmö kommun",2023-02-28,,,41176.0,1495000.0,-95 000 kr (-6 %),Lägenhet,Bostadsrätt,2 rum,34 m²,1.0,"3 av 4, hiss finns",2022,3127.0,https://www.hemnet.se/salda/lagenhet-2rum-hyllie-malmo-kommun-hyllie-boulevard-6b-456532835920082172,5720.0,,2023.0,2.0,28.0,3.0,1,55.562016,12.9750125
870000,Kristianstadsgatan 25A,Lägenhet,"Möllevången, Malmö kommun",2015-11-24,Conny Knutsson,https://www.hemnet.se/maklare/bjurfors-nyproduktion-skane-ab-733751/conny-knutsson-4056,24857.0,795000.0,+75 000 kr (+9 %),Lägenhet,Bostadsrätt,1 rum,35 m²,,,1935,2317.0,https://www.hemnet.se/salda/lagenhet-1rum-mollevangen-malmo-kommun-kristianstadsgatan-25a-450021,,,2015.0,11.0,24.0,,0,55.5914708,13.0152613
1000000,Solgatan 27 B,Lägenhet,"Kirseberg, Malmö kommun",2021-03-11,Isabelle Ekstrand,https://www.hemnet.se/maklare/erik-olsson-fastighetsformedling-435894/isabelle-ekstrand-15061,18182.0,950000.0,+50 000 kr (+5 %),Lägenhet,Bostadsrätt,2 rum,55 m²,0.0,"3 av 3, hiss finns ej",1949,2994.0,https://www.hemnet.se/salda/lagenhet-2rum-kirseberg-malmo-kommun-solgatan-27-b-1344866,3620.0,,2021.0,3.0,11.0,3.0,1,55.6092318,13.0382192
600000,Rödkullastigen 1A,Lägenhet,"Almhög/ Nydala, Malmö kommun",2017-03-13,,,15789.0,550000.0,+50 000 kr (+9 %),Lägenhet,Bostadsrätt,1 rum,38 m²,,,1959,2651.0,https://www.hemnet.se/salda/lagenhet-1rum-almhog-nydala-malmo-kommun-rodkullastigen-1a-643857,4140.0,,2017.0,3.0,13.0,,0,55.5761346,13.0166627
2000000,Kilian Zollsgatan 7B,Lägenhet,"Ribersborg, Malmö kommun",2016-02-17,,,25974.0,2195000.0,-195 000 kr (-9 %),Lägenhet,Bostadsrätt,3 rum,77 m²,,,1939,4321.0,https://www.hemnet.se/salda/lagenhet-3rum-ribersborg-malmo-kommun-kilian-zollsgatan-7b-476080,,,2016.0,2.0,17.0,,0,55.6016543,12.980564
1295000,Vattenverksvägen 17A,Lägenhet,"Kirseberg, Malmö kommun",2021-10-08,Ajdin Fatic,https://www.hemnet.se/maklare/fastighetsbyran-malmo-169/ajdin-fatic-16369,22522.0,1275000.0,+20 000 kr (+2 %),Lägenhet,Bostadsrätt,2 rum,"57,5 m²",,"1,5 av 4, hiss finns ej",,2947.0,https://www.hemnet.se/salda/lagenhet-2rum-kirseberg-malmo-kommun-vattenverksvagen-17a-1474358,4000.0,,2021.0,10.0,8.0,1.0,1,55.6085421,13.0779344
2850000,Murbruksgatan 6,Lägenhet,"Limhamn, Malmö kommun",2019-05-22,,,36538.0,2900000.0,-50 000 kr (-2 %),Lägenhet,Bostadsrätt,3 rum,78 m²,,,2017,4500.0,https://www.hemnet.se/salda/lagenhet-3rum-limhamns-sjostad-malmo-kommun-murbruksgatan-6-1016974,6240.0,,2019.0,5.0,22.0,,0,55.5862653,12.9314831
600000,Uddeholmsgatan 32E,Lägenhet,"Lönngården, Malmö kommun",2024-02-11,Jennifer Johansson,https://www.hemnet.se/maklare/bjurfors-limhamn-1807/jennifer-johansson-22209,19355.0,650000.0,-50 000 kr (-8 %),Lägenhet,Bostadsrätt,1 rum,31 m²,1.0,"1 av 4, hiss finns ej",1953,3126.0,https://www.hemnet.se/salda/lagenhet-1rum-lonngarden-malmo-kommun-uddeholmsgatan-32e-4499346683084240755,,,2024.0,2.0,11.0,1.0,1,55.5835069,13.0236184
2225000,Köpenhamnsvägen 42C,Lägenhet,"Slottsstaden, Malmö kommun",2022-06-08,Alexandra Visekruna,https://www.hemnet.se/maklare/norban-722491/alexandra-visekruna-16589,40090.0,2395000.0,-170 000 kr (-7 %),Lägenhet,Bostadsrätt,2 rum,"55,5 m²",1.0,"7 av 7, hiss finns",1951,3345.0,https://www.hemnet.se/salda/lagenhet-2rum-slottsstaden-malmo-kommun-kopenhamnsvagen-42c-1875602855889444686,6000.0,,2022.0,6.0,8.0,7.0,1,55.5942129,12.9656625
1750000,Döbelnsgatan 6,Lägenhet,"Rörsjöstaden, Malmö kommun",2021-05-06,Emma Nilsson,https://www.hemnet.se/maklare/erik-olsson-fastighetsformedling-435894/emma-nilsson-12617,39773.0,1595000.0,+155 000 kr (+10 %),Lägenhet,Bostadsrätt,"1,5 rum",44 m²,0.0,"6 av 6, hiss finns",1935,3040.0,"https://www.hemnet.se/salda/lagenhet-1,5rum-rorsjostaden-malmo-kommun-dobelnsgatan-6-1379482",5823.0,,2021.0,5.0,6.0,6.0,1,55.605713,13.0194036
1205000,Solgatan 28 H,Lägenhet,"Kirseberg, Malmö kommun",2021-11-22,Labinot Krasniqi,https://www.hemnet.se/maklare/erik-olsson-fastighetsformedling-435894/labinot-krasniqi-8114,23627.0,1195000.0,+10 000 kr (+1 %),Lägenhet,Bostadsrätt,2 rum,51 m²,0.0,"3 av 3, hiss finns ej",1946,2561.0,https://www.hemnet.se/salda/lagenhet-2rum-kirseberg-malmo-kommun-solgatan-28-h-1501680,7200.0,,2021.0,11.0,22.0,3.0,1,55.6092318,13.0382192
875000,Lantmannagatan 4B,Lägenhet,"Nobeltorget, Malmö kommun",2024-01-19,Oscar Guedra,https://www.hemnet.se/maklare/erik-olsson-fastighetsformedling-720071/oscar-guedra-8228,22436.0,925000.0,-50 000 kr (-5 %),Lägenhet,Bostadsrätt,1 rum,39 m²,0.0,"1 av 4, hiss finns ej",1941,3429.0,https://www.hemnet.se/salda/lagenhet-1rum-nobeltorget-malmo-kommun-lantmannagatan-4b-5754933224031706098,6600.0,,2024.0,1.0,19.0,1.0,1,55.5902623,13.020738
1695000,Sallerupsvägen 216A,Lägenhet,"Bulltofta Friluftsstad, Malmö kommun",2021-07-13,Patrik Truedsson,https://www.hemnet.se/maklare/croisette-malmo-oster-736131/patrik-truedsson-10893,31389.0,1745000.0,-50 000 kr (-3 %),Lägenhet,Bostadsrätt,2 rum,54 m²,1.0,"4 av 4, hiss finns",2019,3413.0,https://www.hemnet.se/salda/lagenhet-2rum-bulltofta-friluftsstad-malmo-kommun-sallerupsvagen-216a-1423401,,,2021.0,7.0,13.0,4.0,1,55.6032108,13.0296041
2390000,Regementsgatan 27F,Lägenhet,"Ribersborg, Malmö kommun",2023-01-27,Dennis Berg,https://www.hemnet.se/maklare/bjurfors-jonkoping-711611/dennis-berg-10675,39833.0,2595000.0,-205 000 kr (-8 %),Lägenhet,Bostadsrätt,2 rum,60 m²,1.0,"4 av 5, hiss finns",1944,4093.0,https://www.hemnet.se/salda/lagenhet-2rum-ribersborg-malmo-kommun-regementsgatan-27f-1523841748902612934,,,2023.0,1.0,27.0,4.0,1,55.5978174,12.9712395
610000,Vitemöllegatan 5C,Lägenhet,"Sorgenfri / Nobeltorget, Malmö kommun",2013-11-07,,,12449.0,625000.0,-15 000 kr (-2 %),Lägenhet,Bostadsrätt,2 rum,49 m²,,,1945,2401.0,https://www.hemnet.se/salda/lagenhet-2rum-sorgenfri-nobeltorget-malmo-kommun-vitemollegatan-5c-120482,5400.0,,2013.0,11.0,7.0,,0,55.5894781,13.0257103
2820000,Erik Dahlbergsgatan 26,Lägenhet,"Stadsteatern / Davidshall, Malmö kommun",2015-04-28,Per Jörgensen,https://www.hemnet.se/maklare/bo-laget-fastighetsformedling-716831/per-jorgensen-2680,38630.0,2795000.0,+25 000 kr (+1 %),Lägenhet,Bostadsrätt,3 rum,73 m²,,,1928,3604.0,https://www.hemnet.se/salda/lagenhet-3rum-stadsteatern-davidshall-malmo-kommun-erik-dahlbergsgatan-26-338723,4150.0,,2015.0,4.0,28.0,,0,55.5985676,12.9960346
1095000,Blekingsborgsgatan 3G,Lägenhet,"Blekingsborg, Malmö kommun",2016-01-14,Marielle Jungerup,https://www.hemnet.se/maklare/bjurfors-malmo-city-1806/marielle-jungerup-4076,14503.0,1095000.0,0 kr (±0 %),Lägenhet,Bostadsrätt,3 rum,"75,5 m²",,,1956-1957,4544.0,https://www.hemnet.se/salda/lagenhet-3rum-blekingsborg-malmo-kommun-blekingsborgsgatan-3g-463309,,,2016.0,1.0,14.0,,0,55.5770621,13.0033089
1020000,Närkesgatan 3b,Lägenhet,"Dalaplan, Malmö kommun",2020-08-23,Oskar Mitsner,https://www.hemnet.se/maklare/erik-olsson-fastighetsformedling-435894/oskar-mitsner-13907,18214.0,995000.0,+25 000 kr (+3 %),Lägenhet,Bostadsrätt,2 rum,56 m²,1.0,,1957,3971.0,https://www.hemnet.se/salda/lagenhet-2rum-dalaplan-malmo-kommun-narkesgatan-3b-1236666,2800.0,,2020.0,8.0,23.0,,0,55.5838585,13.0091374
1230000,Norrbäcksgatan 39,Lägenhet,"Kroksbäck, Malmö kommun",2020-10-13,Linnéa Lindberg,https://www.hemnet.se/maklare/fastighetsbyran-malmo-169/linnea-lindberg-17954,19219.0,1150000.0,+80 000 kr (+7 %),Lägenhet,Bostadsrätt,2 rum,64 m²,1.0,"6 av 8, hiss finns",1967,3617.0,https://www.hemnet.se/salda/lagenhet-2rum-kroksback-malmo-kommun-norrbacksgatan-39-1270483,3080.0,,2020.0,10.0,13.0,6.0,1,55.577232,12.9749111
2900000,Pildammsvägen 8B,Lägenhet,"Triangeln, Malmö kommun",2022-02-21,Henrik Feuk,https://www.hemnet.se/maklare/husmanhagberg-malmo-4545/henrik-feuk-19708,52727.0,2750000.0,+150 000 kr (+5 %),Lägenhet,Bostadsrätt,2 rum,55 m²,1.0,"4 av 7, hiss finns",2021,3585.0,https://www.hemnet.se/salda/lagenhet-2rum-triangeln-malmo-kommun-pildammsvagen-8b-4347940411747790860,4028.0,,2022.0,2.0,21.0,4.0,1,55.5496149,12.9825476
995000,Sofierogatan 3D,Lägenhet,"Ellstorp, Malmö kommun",2023-02-03,Cassandra Bülow,https://www.hemnet.se/maklare/bulow-lind-fastighetsformedling-28267/cassandra-bulow-19273,26892.0,995000.0,0 kr (±0 %),Lägenhet,Bostadsrätt,1 rum,37 m²,,"6 av 6, hiss finns",1945,2594.0,https://www.hemnet.se/salda/lagenhet-1rum-ellstorp-malmo-kommun-sofierogatan-3d-4639059120280327491,2100.0,,2023.0,2.0,3.0,6.0,1,55.6041766,13.0324887
2675000,Skvadronsgatan 8,Lägenhet,"Ribersborg, Malmö kommun",2016-04-12,,,26750.0,2295000.0,+380 000 kr (+17 %),Lägenhet,Bostadsrätt,3 rum,100 m²,,,1936,5547.0,https://www.hemnet.se/salda/lagenhet-3rum-ribersborg-malmo-kommun-skvadronsgatan-8-500385,5100.0,,2016.0,4.0,12.0,,0,55.5984812,12.9784999
1445000,Mariedalsvägen 21,Lägenhet,"Ribersborg, Malmö kommun",2021-08-06,Emmeli Ryd,https://www.hemnet.se/maklare/erik-olsson-fastighetsformedling-727551/emmeli-ryd-19179,46613.0,1295000.0,+150 000 kr (+12 %),Lägenhet,Bostadsrätt,1 rum,31 m²,0.0,"1 av 4, hiss finns ej",1927,1645.0,https://www.hemnet.se/salda/lagenhet-1rum-ribersborg-malmo-kommun-mariedalsvagen-21-1432379,,,2021.0,8.0,6.0,1.0,1,55.6008477,12.982973
2350000,Östra Förstadsgatan 19B,Lägenhet,"Slussen, Malmö kommun",2021-09-10,Isabelle Ekstrand,https://www.hemnet.se/maklare/erik-olsson-fastighetsformedling-435894/isabelle-ekstrand-15061,36719.0,2195000.0,+155 000 kr (+7 %),Lägenhet,Bostadsrätt,2 rum,64 m²,0.0,"2 av 6, hiss finns",1907,3296.0,https://www.hemnet.se/salda/lagenhet-2rum-slussen-malmo-kommun-ostra-forstadsgatan-19b-1454714,4320.0,,2021.0,9.0,10.0,2.0,1,55.6072382,13.0175196
980000,Saarisvägen 4C,Lägenhet,"Kirseberg, Malmö kommun",2021-11-03,Mikias Yonas,https://www.hemnet.se/maklare/croisette-malmo-slottsstaden-1091/mikias-yonas-15256,26064.0,895000.0,+85 000 kr (+9 %),Lägenhet,Bostadsrätt,1 rum,"37,6 m²",0.0,"6 av 6, hiss finns",1942,1915.0,https://www.hemnet.se/salda/lagenhet-1rum-kirseberg-malmo-kommun-saarisvagen-4c-1490433,,,2021.0,11.0,3.0,6.0,1,55.6094821,13.0312641
990000,Rosendalsvägen 6,Lägenhet,"Kirseberg, Malmö kommun",2014-06-04,Gustav Cagmo,https://www.hemnet.se/maklare/bjurfors-malmo-oster-2048/gustav-cagmo-8076,14143.0,995000.0,-5 000 kr (-1 %),Lägenhet,Bostadsrätt,3 rum,70 m²,,,1938,3494.0,https://www.hemnet.se/salda/lagenhet-3rum-kirseberg-malmo-kommun-rosendalsvagen-6-199804,6000.0,,2014.0,6.0,4.0,,0,55.6098024,13.0319268
1145000,S:t Knuts väg 10 B,Lägenhet,"S:t Knut, Malmö kommun",2018-06-08,,,29359.0,1195000.0,-50 000 kr (-4 %),Lägenhet,Bostadsrätt,1 rum,39 m²,,,1936,2681.0,https://www.hemnet.se/salda/lagenhet-1rum-s-t-knut-malmo-kommun-s-t-knuts-vag-10-b-841401,,,2018.0,6.0,8.0,,0,55.6052931,13.0001566
365000,Glasbruksgatan 2B,Lägenhet,"Limhamn, Malmö kommun",2014-01-07,Nina Ollhage,https://www.hemnet.se/maklare/croisette-staffanstorp-727111/nina-ollhage-2200,15870.0,420000.0,-55 000 kr (-13 %),Lägenhet,Bostadsrätt,1 rum,23 m²,,,1950,2147.0,https://www.hemnet.se/salda/lagenhet-1rum-limhamn-malmo-kommun-glasbruksgatan-2b-138453,2400.0,,2014.0,1.0,7.0,,0,55.5840013,12.9362697
1400000,Serenadgatan 30,Lägenhet,"Högaholm, Malmö kommun",2021-01-22,,,17073.0,1295000.0,+105 000 kr (+8 %),Lägenhet,Bostadsrätt,3 rum,82 m²,1.0,"4 av 17, hiss finns",1972,5449.0,https://www.hemnet.se/salda/lagenhet-3rum-hogaholm-malmo-kommun-serenadgatan-30-1318639,14664.0,,2021.0,1.0,22.0,4.0,1,55.56179665,13.007337892276606
1575000,Lovartsgatan 13,Lägenhet,"Dockan, Malmö kommun",2023-01-06,Maxime Melkie,https://www.hemnet.se/maklare/fastighetsbyran-malmo-169/maxime-melkie-8937,47727.0,1695000.0,-120 000 kr (-7 %),Lägenhet,Bostadsrätt,"1,5 rum",33 m²,1.0,"4 av 7, hiss finns",2020-2022,2363.0,"https://www.hemnet.se/salda/lagenhet-1,5rum-dockan-malmo-kommun-lovartsgatan-13-292439566521819070",,,2023.0,1.0,6.0,4.0,1,55.6130851,12.9880223
1050000,Vitemöllegatan 11B,Lägenhet,"Nobeltorget, Malmö kommun",2019-05-23,,,19266.0,1095000.0,-45 000 kr (-4 %),Lägenhet,Bostadsrätt,2 rum,"54,5 m²",,,1954,3750.0,https://www.hemnet.se/salda/lagenhet-2rum-nobeltorget-malmo-kommun-vitemollegatan-11b-1017543,,,2019.0,5.0,23.0,,0,55.5894781,13.0257103
2825000,Kristianstadsgatan 20,Lägenhet,"Möllevången, Malmö kommun",2021-08-31,Ebba Svensson,https://www.hemnet.se/maklare/bjurfors-goteborg-city-2150/ebba-svensson-19442,33235.0,2895000.0,-70 000 kr (-2 %),Lägenhet,Bostadsrätt,3 rum,85 m²,0.0,"5 av 5, hiss finns",1933,6010.0,https://www.hemnet.se/salda/lagenhet-3rum-mollevangen-malmo-kommun-kristianstadsgatan-20-1446851,,,2021.0,8.0,31.0,5.0,1,55.59220965,13.01090671729252
1125000,Vårgatan 15,Lägenhet,"Östervärn, Malmö kommun",2018-09-12,Marielle Jungerup,https://www.hemnet.se/maklare/bjurfors-malmo-city-1806/marielle-jungerup-4076,29605.0,895000.0,+230 000 kr (+26 %),Lägenhet,Bostadsrätt,"1,5 rum",38 m²,,,1939,2473.0,"https://www.hemnet.se/salda/lagenhet-1,5rum-ostervarn-malmo-kommun-vargatan-15-880180",,,2018.0,9.0,12.0,,0,55.605078649999996,13.028149233004541
2250000,Nils Forsbergsgatan 12,Lägenhet,"Ribersborg, Malmö kommun",2020-10-07,Johanna Olsson,https://www.hemnet.se/maklare/fastighetsbyran-malmo-169/johanna-olsson-9058,38793.0,2150000.0,+100 000 kr (+5 %),Lägenhet,Bostadsrätt,2 rum,58 m²,,"3 av 4, hiss finns ej",1944,3897.0,https://www.hemnet.se/salda/lagenhet-2rum-ribersborg-malmo-kommun-nils-forsbergsgatan-12-1266167,5400.0,,2020.0,10.0,7.0,3.0,1,55.6002731,12.9804084
855000,Serenadgatan 57,Lägenhet,"Högaholm, Malmö kommun",2022-01-07,Edvin Karajkovic,https://www.hemnet.se/maklare/croisette-malmo-vastra-hamnen-12766/edvin-karajkovic-10415,13359.0,795000.0,+60 000 kr (+8 %),Lägenhet,Bostadsrätt,2 rum,64 m²,1.0,"2 av 8, hiss finns",1971,3341.0,https://www.hemnet.se/salda/lagenhet-2rum-hogaholm-malmo-kommun-serenadgatan-57-5907386011677049122,,,2022.0,1.0,7.0,2.0,1,55.559333,13.0112283
